"id","name","lat","long","county","district","address","postal_code","directions_url","in_maintenance","contact","gas95","gas98","diesel"
451,"1º de Dezembro",38.713742,-9.140362,"Lisboa","Lisboa","Rua 1º Dezembro","1200-358 Lisboa","http://maps.google.com/maps?z=12&t=m&q=Pingo+Doce+-+Rua+1%C2%BA+Dezembro+Lisboa",FALSE,"938875501",NA,NA,NA
889,"Abóboda",38.7284544,-9.3279035,"São Domingos de Rana","Lisboa","Estrada Conceição da Abóboda","2785-543 São Domingos de Rana","http://maps.google.com/maps?z=12&t=m&q=Pingo+Doce+-+Estrada+Concei%C3%A7%C3%A3o+da+Ab%C3%B3boda++S%C3%A3o+Domingos+de+Rana",FALSE,"938875139",NA,NA,NA
682,"Abrantes - Encosta da Barata",39.466522217,-8.203965187,"Abrantes","Santarém","Avenida 14 de Junho - Encosta Da Barata","2200-298 Abrantes","http://maps.google.com/maps?z=12&t=m&q=Pingo+Doce+-+Avenida+14+de+Junho+-+Encosta+Da+Barata+Abrantes",FALSE,"938875682",1.625,NA,1.578
339,"Afonso V",41.15932,-8.66578,"Porto","Porto","Rua Afonso Baldaia","4150-24 Porto","http://maps.google.com/maps?z=12&t=m&q=Pingo+Doce+-+Rua+Afonso+Baldaia+Porto",FALSE,"938875339",NA,NA,NA
411,"Agualva",38.77526474,-9.284955025,"Sintra","Lisboa","Rua Sebastião Philippes Martins Estácio Veiga-U.Anta","2735-584 Sintra","http://maps.google.com/maps?z=12&t=m&q=Pingo+Doce+-+Rua+Sebasti%C3%A3o+Philippes+Martins+Est%C3%A1cio+Veiga-U.Anta+Sintra",FALSE,"938875411",NA,NA,NA
671,"Águeda - Quinta da Alagoa",40.59088,-8.45296,"Águeda","Aveiro","Quinta Da Alagoa","2750- Águeda","http://maps.google.com/maps?z=12&t=m&q=Pingo+Doce+-+Quinta+Da+Alagoa+%C3%81gueda",FALSE,"938043531",NA,NA,NA
820,"Alapraia",38.704965099642,-9.37799720237729,"Cascais","Lisboa","C.C. Areias - Alapraia","2765-88 Cascais","http://maps.google.com/maps?z=12&t=m&q=Pingo+Doce+-+C.C.+Areias+-+Alapraia+Cascais",FALSE,"938875820",NA,NA,NA
519,"Albergaria-a-Velha",40.713244,-8.482041,"Albergaria-a-Velha","Aveiro","Lugar do Areeiro, Zona Industrial","3850-200 Albergaria-a-Velha","http://maps.google.com/maps?z=12&t=m&q=Pingo+Doce+-+Lugar+do+Areeiro%2C+Zona+Industrial+Albergaria-a-Velha",FALSE,"938875214",NA,NA,NA
850,"Albufeira - Bela Vista",37.0918,-8.24093,"Albufeira","Faro","Avenida Dos Descobrimentos - Urbanização Bela Vista","8200-127 Albufeira","http://maps.google.com/maps?z=12&t=m&q=Pingo+Doce+-+Avenida+Dos+Descobrimentos+-+Urbaniza%C3%A7%C3%A3o+Bela+Vista+Albufeira",FALSE,"938875850",NA,NA,NA
622,"Albufeira - Caliços",37.1003378646495,-8.25296401977539,"Albufeira","Faro","Urbanização Dos Caliços","8200-667 Albufeira","http://maps.google.com/maps?z=12&t=m&q=Pingo+Doce+-+Urbaniza%C3%A7%C3%A3o+Dos+Cali%C3%A7os+Albufeira",FALSE,"938875212",NA,NA,NA
754,"Albufeira - Quinta da Correeira",37.093997,-8.23391,"Albufeira","Faro","Rua Do Lageado - Urbanização Da Quinta Da Correeira","8200-328 Albufeira","http://maps.google.com/maps?z=12&t=m&q=Pingo+Doce+-+Rua+Do+Lageado+-+Urbaniza%C3%A7%C3%A3o+Da+Quinta+Da+Correeira+Albufeira",FALSE,"938875754",NA,NA,NA
459,"Alcântara",38.7029609680176,-9.17521953582764,"Lisboa","Lisboa","Rua Cascais","1300-120 Lisboa","http://maps.google.com/maps?z=12&t=m&q=Pingo+Doce+-+Rua+Cascais+Lisboa",FALSE,"938875559",NA,NA,NA
863,"Alcobaça - Quinta da Barrada",39.54594,-8.96871,"Alcobaça","Leiria","VCI - Quinta da Bairrada","2460- Alcobaça","http://maps.google.com/maps?z=12&t=m&q=Pingo+Doce+-+VCI+-+Quinta+da+Bairrada+Alcoba%C3%A7a",FALSE,"937876613",NA,NA,NA
765,"Alcochete",38.751962,-8.94558,"Alcochete","Setúbal","Avenida Euro 2004 - Sítio Da Quebrada","2890-154 Alcochete","http://maps.google.com/maps?z=12&t=m&q=Pingo+Doce+-+Avenida+Euro+2004+-+S%C3%ADtio+Da+Quebrada+Alcochete",FALSE,"938875765",NA,NA,NA
656,"Alegro Sintra - Hiper",38.77596,-9.34091,"Sintra","Lisboa","Ic 19 - Alto Do Forte","2735-18 Sintra","http://maps.google.com/maps?z=12&t=m&q=Pingo+Doce+-+Ic+19+-+Alto+Do+Forte+Sintra",FALSE,"936875656",NA,NA,NA
780,"Alenquer",39.04902,-8.99696,"Alenquer","Lisboa","Quinta do Bravo - Santo Estevão","2580-21 Alenquer","http://maps.google.com/maps?z=12&t=m&q=Pingo+Doce+-+Quinta+do+Bravo+-+Santo+Estev%C3%A3o+Alenquer",FALSE,"938875771",NA,NA,NA
439,"Alfragide",38.73793793,-9.224886894,"Amadora","Lisboa","Urbanização Qtª.Grande","2720- Amadora","http://maps.google.com/maps?z=12&t=m&q=Pingo+Doce+-+Urbaniza%C3%A7%C3%A3o+Qt%C2%AA.Grande+Amadora",FALSE,"938875439",NA,NA,NA
821,"Algés",38.69997,-9.22906,"Oeiras","Lisboa","Rua Gen. Humberto Delgado","1495-68 Oeiras","http://maps.google.com/maps?z=12&t=m&q=Pingo+Doce+-+Rua+Gen.+Humberto+Delgado+Oeiras",FALSE,"938875821",NA,NA,NA
649,"Aljustrel",37.8812835,-8.162676,"Aljustrel","Beja","Estrada Municipal 539","7600-73 Aljustrel","http://maps.google.com/maps?z=12&t=m&q=Pingo+Doce+-+Estrada+Municipal+539+Aljustrel",FALSE,"938875033",NA,NA,NA
414,"Almada",38.678547,-9.156519,"Almada","Setúbal","Rua Garcia Da Horta","2800-698 Almada","http://maps.google.com/maps?z=12&t=m&q=Pingo+Doce+-+Rua+Garcia+Da+Horta+Almada",FALSE,"938875414",NA,NA,NA
399,"Almancil",37.09033,-8.0334,"Loulé","Faro","Rua Maria Campina","8135-139 Loulé","http://maps.google.com/maps?z=12&t=m&q=Pingo+Doce+-+Rua+Maria+Campina+Loul%C3%A9",FALSE,"938875399",NA,NA,NA
683,"Almeirim - Quinta da Alorna",39.19111111,-8.623333333,"Almeirim","Santarém","Quinta Da Alorna - Zona Industrial De Almeirim","2080-221 Almeirim","http://maps.google.com/maps?z=12&t=m&q=Pingo+Doce+-+Quinta+Da+Alorna+-+Zona+Industrial+De+Almeirim+Almeirim",FALSE,"938875683",1.605,1.758,1.536
816,"Almodôvar",37.511905,-8.065542,"Almodôvar","Beja","E.N. 393, Cerca Dos Soeiros","7700-18 Almodôvar","http://maps.google.com/maps?z=12&t=m&q=Pingo+Doce+-+E.N.+393%2C+Cerca+Dos+Soeiros+Almod%C3%B4var",FALSE,"938875816",NA,NA,NA
888,"Altura",37.1807,-7.4971,"Altura","Faro","Rua João de Almeida","8950-414 Altura","http://maps.google.com/maps?z=12&t=m&q=Pingo+Doce+-+Rua+Jo%C3%A3o+de+Almeida++Altura",FALSE,"281247030",NA,NA,NA
492,"Alvalade",38.75319,-9.14465,"Lisboa","Lisboa","C.C. Alvalade - Praça de Alvalade","1700-36 Lisboa","http://maps.google.com/maps?z=12&t=m&q=Pingo+Doce+-+C.C.+Alvalade+-+Pra%C3%A7a+de+Alvalade+Lisboa",FALSE,"938042406",NA,NA,NA
803,"Alvalade - Conde Sabugosa",38.748326,-9.140387,"Lisboa","Lisboa","Rua Conde Sabugosa","1700-115 Lisboa","http://maps.google.com/maps?z=12&t=m&q=Pingo+Doce+-+Rua+Conde+Sabugosa+Lisboa",FALSE,"938875803",NA,NA,NA
429,"Alverca  - Super",38.8945,-9.03933,"Vila Franca de Xira","Lisboa","C.C. Parque - Rua Brigadeiro Fernando Alberto Oliveira","2615-77 Vila Franca de Xira","http://maps.google.com/maps?z=12&t=m&q=Pingo+Doce+-+C.C.+Parque+-+Rua+Brigadeiro+Fernando+Alberto+Oliveira+Vila+Franca+de+Xira",FALSE,"938875429",NA,NA,NA
684,"Alverca - Verdelha Baixo, EN 10",38.885983,-9.04541,"Vila Franca de Xira","Lisboa","Quinta Da Verdelha - E.N. N.º 10 - Retail Park","2615-377 Vila Franca de Xira","http://maps.google.com/maps?z=12&t=m&q=Pingo+Doce+-+Quinta+Da+Verdelha+-+E.N.+N.%C2%BA+10+-+Retail+Park+Vila+Franca+de+Xira",FALSE,"938875684",NA,NA,NA
447,"Alvide",38.714630127,-9.424798012,"Cascais","Lisboa","Largo De Alvide","2755-30 Cascais","http://maps.google.com/maps?z=12&t=m&q=Pingo+Doce+-+Largo+De+Alvide+Cascais",FALSE,"938875447",NA,NA,NA
426,"Alvor",37.133808,-8.59115,"Portimão","Faro","Estrada De Alvor - Urbanização S. Pedro Lavaredo","8500-87 Portimão","http://maps.google.com/maps?z=12&t=m&q=Pingo+Doce+-+Estrada+De+Alvor+-+Urbaniza%C3%A7%C3%A3o+S.+Pedro+Lavaredo+Portim%C3%A3o",FALSE,"938047397",NA,NA,NA
824,"Amadora",38.7594988,-9.2379926,"Amadora","Lisboa","C.C. Babilónia - Av.Elias Garcia","2700-336 Amadora","http://maps.google.com/maps?z=12&t=m&q=Pingo+Doce+-+C.C.+Babil%C3%B3nia+-+Av.Elias+Garcia+Amadora",FALSE,"938875824",NA,NA,NA
744,"Amarante",41.28697,-8.09559,"Amarante","Porto","E.N. 15, Lugar Da Boavista, Telões","4600-756 Amarante","http://maps.google.com/maps?z=12&t=m&q=Pingo+Doce+-+E.N.+15%2C+Lugar+Da+Boavista%2C+Tel%C3%B5es+Amarante",FALSE,"938875144",1.625,NA,1.578
303,"Ameal",41.1786,-8.614,"Porto","Porto","Rua do Ameal nº 667/681 4200-062","4200-62 Porto","http://maps.google.com/maps?z=12&t=m&q=Pingo+Doce+-+Rua+do+Ameal+n%C2%BA+667%2F681+4200-062++Porto",FALSE,"938875303",NA,NA,NA
395,"Anadia",40.4464,-8.45161,"Anadia","Aveiro","Avenida José Luciano De Castro - Arcos","3780-204 Anadia","http://maps.google.com/maps?z=12&t=m&q=Pingo+Doce+-+Avenida+Jos%C3%A9+Luciano+De+Castro+-+Arcos+Anadia",FALSE,"938875940",NA,NA,NA
538,"Ansião",39.9576876244446,-8.43676237793914,"Ansião","Leiria","Rua Principal do Lousal","3240-222 Ansião","http://maps.google.com/maps?z=12&t=m&q=Pingo+Doce+-+Rua+Principal+do+Lousal+Ansi%C3%A3o",FALSE,"938875262",NA,NA,NA
375,"Antunes Guimarães - Lidador",41.1709255801752,-8.65807414054871,"Porto","Porto","Rua Do Lidador","4100-307 Porto","http://maps.google.com/maps?z=12&t=m&q=Pingo+Doce+-+Rua+Do+Lidador+Porto",FALSE,"938040380",NA,NA,NA
364,"Arcos Valdevez",41.82963,-8.41606,"Arcos de Valdevez","Viana do Castelo","Lugar De Barreiro - Paçô","4970-236 Arcos de Valdevez","http://maps.google.com/maps?z=12&t=m&q=Pingo+Doce+-+Lugar+De+Barreiro+-+Pa%C3%A7%C3%B4+Arcos+de+Valdevez",FALSE,"938875309",NA,NA,NA
609,"Arcozelo",41.06194444,-8.629166667,"Vila Nova de Gaia","Porto","Av. Da Igreja","4410-411 Vila Nova de Gaia","http://maps.google.com/maps?z=12&t=m&q=Pingo+Doce+-+Av.+Da+Igreja+Vila+Nova+de+Gaia",FALSE,"938877508",NA,NA,NA
760,"Armação de Pêra - Torre",37.106606,-8.35972,"Silves","Faro","Urbanização Vila Nova II - Lugar Da Torre","8365-184 Silves","http://maps.google.com/maps?z=12&t=m&q=Pingo+Doce+-+Urbaniza%C3%A7%C3%A3o+Vila+Nova+II+-+Lugar+Da+Torre+Silves",FALSE,"282 310 370",NA,NA,NA
705,"Arneiro",38.70475,-9.32396,"Cascais","Lisboa","Estrada Do Arneiro, Lugar Do Arneiro, São Domingos Rana","2775-524 Cascais","http://maps.google.com/maps?z=12&t=m&q=Pingo+Doce+-+Estrada+Do+Arneiro%2C+Lugar+Do+Arneiro%2C+S%C3%A3o+Domingos+Rana+Cascais",FALSE,"938875705",NA,NA,NA
327,"Arouca",40.92836,-8.24854,"Arouca","Aveiro","Av. 25 de Abril","4540-102 Arouca","http://maps.google.com/maps?z=12&t=m&q=Pingo+Doce+-+Av.+25+de+Abril+Arouca",FALSE,"938875327",NA,NA,NA
381,"Arrifana - Outeiro",40.92195,-8.49906,"Santa Maria da Feira","Aveiro","Rua Pedro Alvares Cabral - Outeiro Campo Verde","3700-530 Santa Maria da Feira","http://maps.google.com/maps?z=12&t=m&q=Pingo+Doce+-+Rua+Pedro+Alvares+Cabral+-+Outeiro+Campo+Verde+Santa+Maria+da+Feira",FALSE,"938875381",1.625,NA,1.578
719,"Arruda dos Vinhos",38.991604,-9.076209,"Arruda dos Vinhos","Lisboa","Rua Eng.º Tomás Ribeiro Corrêa","2630- Arruda dos Vinhos","http://maps.google.com/maps?z=12&t=m&q=Pingo+Doce+-+Rua+Eng.%C2%BA+Tom%C3%A1s+Ribeiro+Corr%C3%AAa+Arruda+dos+Vinhos",FALSE,"938875219",NA,NA,NA
652,"Aveiro - Hiper",40.65017,-8.62101,"Aveiro","Aveiro","E.N. 109 - Esgueira","3800-42 Aveiro","http://maps.google.com/maps?z=12&t=m&q=Pingo+Doce+-+E.N.+109+-+Esgueira+Aveiro",FALSE,"939990161",1.625,NA,1.578
386,"Aveiro - Ria",40.64735,-8.646605,"Aveiro","Aveiro","Rua Dr. Francisco Ferreira Neves - Urbanização Das Barrocas","3800-510 Aveiro","http://maps.google.com/maps?z=12&t=m&q=Pingo+Doce+-+Rua+Dr.+Francisco+Ferreira+Neves+-+Urbaniza%C3%A7%C3%A3o+Das+Barrocas+Aveiro",FALSE,"938875386",NA,NA,NA
603,"Aveiro - São Bernardo",40.63039,-8.64345,"Aveiro","Aveiro","Estrada São Bernardo","3810-175 Aveiro","http://maps.google.com/maps?z=12&t=m&q=Pingo+Doce+-+Estrada+S%C3%A3o+Bernardo+Aveiro",FALSE,"938875603",NA,NA,NA
493,"Aveiro - Vera Cruz",40.641186638067,-8.64389,"Aveiro","Aveiro","Avª Congressos da Oposição Democrática","3800-365 Aveiro","http://maps.google.com/maps?z=12&t=m&q=Pingo+Doce+-+Av%C2%AA+Congressos+da+Oposi%C3%A7%C3%A3o+Democr%C3%A1tica+Aveiro",FALSE,"938040479",NA,NA,NA
802,"Avenida 5 de Outubro",38.738105,-9.148301,"Lisboa","Lisboa","Av. 5 Outubro","1500-51 Lisboa","http://maps.google.com/maps?z=12&t=m&q=Pingo+Doce+-+Av.+5+Outubro+Lisboa",FALSE,"938875802",NA,NA,NA
822,"Avenida Almirante Reis",38.732196,-9.134146,"Lisboa","Lisboa","Av. Almirante Reis","1150-23 Lisboa","http://maps.google.com/maps?z=12&t=m&q=Pingo+Doce+-+Av.+Almirante+Reis+Lisboa",FALSE,"938875822",NA,NA,NA
437,"Avenida de Paris",38.741161346,-9.136449814,"Lisboa","Lisboa","Av. Paris","1000-229 Lisboa","http://maps.google.com/maps?z=12&t=m&q=Pingo+Doce+-+Av.+Paris+Lisboa",FALSE,"938875437",NA,NA,NA
441,"Avenida Duque de Ávila",38.734760284,-9.142069817,"Lisboa","Lisboa","Av. Duque D'Avila","1000-139 Lisboa","http://maps.google.com/maps?z=12&t=m&q=Pingo+Doce+-+Av.+Duque+D%27Avila++Lisboa",FALSE,"938875441",NA,NA,NA
801,"Avenida Estados Unidos da América",38.749378204,-9.146069527,"Lisboa","Lisboa","Rua António Patricio","1700-62 Lisboa","http://maps.google.com/maps?z=12&t=m&q=Pingo+Doce+-+Rua+Ant%C3%B3nio+Patricio+Lisboa",FALSE,"938875801",NA,NA,NA
513,"Avintes",41.108805,-8.552045,"Vila Nova de Gaia","Porto","Rua da Escola Central","4430-822 Vila Nova de Gaia","http://maps.google.com/maps?z=12&t=m&q=Pingo+Doce+-+Rua+da+Escola+Central+Vila+Nova+de+Gaia",FALSE,"931114520",NA,NA,NA
490,"Azeitão",38.52661,-9.00148,"Setúbal","Setúbal","Qta Velha - Azinhaga Dos Pasmados, São Simão","2925-115 Setúbal","http://maps.google.com/maps?z=12&t=m&q=Pingo+Doce+-+Qta+Velha+-+Azinhaga+Dos+Pasmados%2C+S%C3%A3o+Sim%C3%A3o+Set%C3%BAbal",FALSE,"938040482",NA,NA,NA
304,"Barcelos",41.53202,-8.62307,"Barcelos","Braga","Rua Filipa Borges 4750-292","4750-292 Barcelos","http://maps.google.com/maps?z=12&t=m&q=Pingo+Doce+-+Rua+Filipa+Borges+4750-292+Barcelos",FALSE,"938875304",NA,NA,NA
883,"Barcelos Alcaides de Faria",41.5351765,-8.6114469,"Barcelos","Braga","Rua Dom Afonso","4750-106 Barcelos","http://maps.google.com/maps?z=12&t=m&q=Pingo+Doce+-+Rua+Dom+Afonso++Barcelos",FALSE,"938044366",NA,NA,NA
653,"Barreiro - Hiper",38.668827057,-9.061271667,"Barreiro","Setúbal","Avenida Das Nacionalizações, Quimiparque, Lavradio","2835-807 Barreiro","http://maps.google.com/maps?z=12&t=m&q=Pingo+Doce+-+Avenida+Das+Nacionaliza%C3%A7%C3%B5es%2C+Quimiparque%2C+Lavradio+Barreiro",FALSE,"212066300",NA,NA,NA
449,"Barreiro - Terminal Fluvial",38.6549,-9.07821,"Barreiro","Setúbal","Terminal Rodo Ferro Fluvial","2830-277 Barreiro","http://maps.google.com/maps?z=12&t=m&q=Pingo+Doce+-+Terminal+Rodo+Ferro+Fluvial+Barreiro",FALSE,"938875449",NA,NA,NA
769,"Barreiro - Vila Chã",38.63007,-9.03888,"Barreiro","Setúbal","Estrada Municipal nº 510 - Sto.António da Charneca","2830-490 Barreiro","http://maps.google.com/maps?z=12&t=m&q=Pingo+Doce+-+Estrada+Municipal+n%C2%BA+510+-+Sto.Ant%C3%B3nio+da+Charneca+Barreiro",FALSE,"938875769",NA,NA,NA
484,"Barreiro Fórum",38.6611,-9.07278,"Barreiro","Setúbal","C.C. Barreiro Fórum","2830-364 Barreiro","http://maps.google.com/maps?z=12&t=m&q=Pingo+Doce+-+C.C.+Barreiro+F%C3%B3rum+Barreiro",FALSE,"938875044",NA,NA,NA
360,"Batalha",39.66372,-8.825,"Batalha","Leiria","Rua das Piscinas, Quinta Da Cerca","2440-505 Batalha","http://maps.google.com/maps?z=12&t=m&q=Pingo+Doce+-+Rua+das+Piscinas%2C+Quinta+Da+Cerca+Batalha",FALSE,"938876360",NA,NA,NA
443,"Beja - 5 Outubro",38.011779,-7.866028,"Beja","Beja","Rua 5 De Outubro","7800-454 Beja","http://maps.google.com/maps?z=12&t=m&q=Pingo+Doce+-+Rua+5+De+Outubro+Beja",FALSE,"938875443",NA,NA,NA
405,"Beja - Santo Amaro",38.017236,-7.866338,"Beja","Beja","Largo Santo Amaro","7800-263 Beja","http://maps.google.com/maps?z=12&t=m&q=Pingo+Doce+-+Largo+Santo+Amaro+Beja",FALSE,"938875405",NA,NA,NA
768,"Beja - Seminário",38.010792,-7.855343,"Beja","Beja","Rua Escritor Ferreira De Castro - Urbanização Do Seminário","7800-62 Beja","http://maps.google.com/maps?z=12&t=m&q=Pingo+Doce+-+Rua+Escritor+Ferreira+De+Castro+-+Urbaniza%C3%A7%C3%A3o+Do+Semin%C3%A1rio+Beja",FALSE,"938875268",NA,NA,NA
658,"Bela Vista - Hiper",38.747658,-9.117176,"Lisboa","Lisboa","Av. Santo Condestável - Via Central Chelas","1900-806 Lisboa","http://maps.google.com/maps?z=12&t=m&q=Pingo+Doce+-+Av.+Santo+Condest%C3%A1vel+-+Via+Central+Chelas+Lisboa",FALSE,"938040875",NA,NA,NA
607,"Benavente",38.97935,-8.81034,"Benavente","Santarém","Rua Álvaro Rodrigues Azevedo","2130-184 Benavente","http://maps.google.com/maps?z=12&t=m&q=Pingo+Doce+-+Rua+%C3%81lvaro+Rodrigues+Azevedo+Benavente",FALSE,"938875607",NA,NA,NA
825,"Benfica",38.75398,-9.19563,"Lisboa","Lisboa","Av. Uruguai","1500-615 Lisboa","http://maps.google.com/maps?z=12&t=m&q=Pingo+Doce+-+Av.+Uruguai+Lisboa",FALSE,"938875825",NA,NA,NA
481,"Boa-Hora",38.701847076,-9.193902969,"Lisboa","Lisboa","Rua Alfredo Da Silva","1300-41 Lisboa","http://maps.google.com/maps?z=12&t=m&q=Pingo+Doce+-+Rua+Alfredo+Da+Silva+Lisboa",FALSE,"938875481",NA,NA,NA
601,"Boavista",41.1597,-8.6393,"Porto","Porto","Av. Boavista","4100-130 Porto","http://maps.google.com/maps?z=12&t=m&q=Pingo+Doce+-+Av.+Boavista+Porto",FALSE,"938875601",NA,NA,NA
718,"Bobadela",38.81406,-9.10083,"Loures","Lisboa","Rua D. Afonso Henriques","2695-11 Loures","http://maps.google.com/maps?z=12&t=m&q=Pingo+Doce+-+Rua+D.+Afonso+Henriques+Loures",FALSE,"938875518",NA,NA,NA
473,"Borba",38.80627,-7.46112,"Borba","Évora","Avenida D. Dinis de Melo e Castro - Horta do Mosteiro","7150-105 Borba","http://maps.google.com/maps?z=12&t=m&q=Pingo+Doce+-+Avenida+D.+Dinis+de+Melo+e+Castro+-+Horta+do+Mosteiro+Borba",FALSE,"938875586",1.625,NA,1.578
313,"Braga - Avenida da Liberdade",41.54751,-8.42163,"Braga","Braga","Av. Liberdade - Edf. Granjinhos","4710-308 Braga","http://maps.google.com/maps?z=12&t=m&q=Pingo+Doce+-+Av.+Liberdade+-+Edf.+Granjinhos+Braga",FALSE,"938875313",NA,NA,NA
748,"Braga - Frossos",41.56493,-8.449345,"Braga","Braga","Rua de Cima, Lote Nº1, Freguesia de Frossos","4700-150 Braga","http://maps.google.com/maps?z=12&t=m&q=Pingo+Doce+-+Rua+de+Cima%2C+Lote+N%C2%BA1%2C+Freguesia+de+Frossos+Braga",FALSE,"938875748",NA,NA,NA
651,"Braga - Hiper",41.55644,-8.407017,"Braga","Braga","Quinta Dos Congregados - S. Victor","4710-427 Braga","http://maps.google.com/maps?z=12&t=m&q=Pingo+Doce+-+Quinta+Dos+Congregados+-+S.+Victor+Braga",FALSE,"253250400",NA,NA,NA
621,"Braga - Machado Vilela",41.5479,-8.4129,"Braga","Braga","Rua Prof. Machado Vilela","4715-45 Braga","http://maps.google.com/maps?z=12&t=m&q=Pingo+Doce+-+Rua+Prof.+Machado+Vilela+Braga",FALSE,"938875384",NA,NA,NA
373,"Braga - Pachancho",41.55752,-8.41718,"Braga","Braga","Rua Regimento de Infantaria 8, Urbanização do Pachancho, Lugar de Infias","4700-145 Braga","http://maps.google.com/maps?z=12&t=m&q=Pingo+Doce+-+Rua+Regimento+de+Infantaria+8%2C+Urbaniza%C3%A7%C3%A3o+do+Pachancho%2C+Lugar+de+Infias+Braga",FALSE,"938875523",NA,NA,NA
336,"Braga Shopping",41.55353,-8.4226,"Braga","Braga","Braga Shopping - Rua Santo André","4710-308 Braga","http://maps.google.com/maps?z=12&t=m&q=Pingo+Doce+-+Braga+Shopping+-+Rua+Santo+Andr%C3%A9+Braga",FALSE,"938875336",NA,NA,NA
672,"Bragança - Zona Industrial",41.78768,-6.77784,"Bragança","Bragança","Rua Coronel Teófilo de Morais - Zona Industrial das Cantarias","5300-427 Bragança","http://maps.google.com/maps?z=12&t=m&q=Pingo+Doce+-+Rua+Coronel+Te%C3%B3filo+de+Morais+-+Zona+Industrial+das+Cantarias+Bragan%C3%A7a",FALSE,"938042705",NA,NA,NA
413,"Cacém",38.7701683,-9.297050476,"Sintra","Lisboa","CC Agualva Shopping - Rua António Nunes Sequeira","2735-56 Sintra","http://maps.google.com/maps?z=12&t=m&q=Pingo+Doce+-+CC+Agualva+Shopping+-+Rua+Ant%C3%B3nio+Nunes+Sequeira+Sintra",FALSE,"938875413",NA,NA,NA
371,"Cais de Sodré",38.70565,-9.144867,"Lisboa","Lisboa","Estação De Cais Do Sodré, Praça Duque Da Terceira","1200-621 Lisboa","http://maps.google.com/maps?z=12&t=m&q=Pingo+Doce+-+Esta%C3%A7%C3%A3o+De+Cais+Do+Sodr%C3%A9%2C+Pra%C3%A7a+Duque+Da+Terceira+Lisboa",FALSE,"938875503",NA,NA,NA
685,"Caldas da Rainha - Estrada da Tornada",39.426231384,-9.129693031,"Caldas da Rainha","Leiria","Estrada Da Tornada","2500-315 Caldas da Rainha","http://maps.google.com/maps?z=12&t=m&q=Pingo+Doce+-+Estrada+Da+Tornada+Caldas+da+Rainha",FALSE,"938875685",1.625,NA,1.578
402,"Caldas da Rainha - Heróis Grande Guerra",39.4049,-9.13525,"Caldas da Rainha","Leiria","Rua Heróis Da Grande Guerra","2500-215 Caldas da Rainha","http://maps.google.com/maps?z=12&t=m&q=Pingo+Doce+-+Rua+Her%C3%B3is+Da+Grande+Guerra+Caldas+da+Rainha",FALSE,"938875402",NA,NA,NA
706,"Caldas da Rainha - Vitorino Fróis",39.4032,-9.14537,"Caldas da Rainha","Leiria","Rua Vitorino Frois","2500-256 Caldas da Rainha","http://maps.google.com/maps?z=12&t=m&q=Pingo+Doce+-+Rua+Vitorino+Frois+Caldas+da+Rainha",FALSE,"938875706",NA,NA,NA
732,"Caldas das Taipas-Guimarães",41.487769,-8.355199,"Guimarães","Braga","Rua de São Martinho - EN101, Km 104 - Lugar da Ribeira","4801-908 Guimarães","http://maps.google.com/maps?z=12&t=m&q=Pingo+Doce+-+Rua+de+S%C3%A3o+Martinho+-+EN101%2C+Km+104+-+Lugar+da+Ribeira+Guimar%C3%A3es",FALSE,"938875732",NA,NA,NA
773,"Camarate",38.79312,-9.13775,"Loures","Lisboa","Av. Dos Bombeiros Voluntários","2680-576 Loures","http://maps.google.com/maps?z=12&t=m&q=Pingo+Doce+-+Av.+Dos+Bombeiros+Volunt%C3%A1rios+Loures",FALSE,"938875773",NA,NA,NA
332,"Caminha",41.87878,-8.83789,"Caminha","Viana do Castelo","Praça Espanha","4910-122 Caminha","http://maps.google.com/maps?z=12&t=m&q=Pingo+Doce+-+Pra%C3%A7a+Espanha+Caminha",FALSE,"938875332",NA,NA,NA
491,"Campo Pequeno",38.742737,-9.145142,"Lisboa","Lisboa","Centro De Lazer Campo Pequeno","1000-306 Lisboa","http://maps.google.com/maps?z=12&t=m&q=Pingo+Doce+-+Centro+De+Lazer+Campo+Pequeno+Lisboa",FALSE,"938040267",NA,NA,NA
811,"Campo Santana",38.72198,-9.13885,"Lisboa","Lisboa","Largo Do Mastro","1150-229 Lisboa","http://maps.google.com/maps?z=12&t=m&q=Pingo+Doce+-+Largo+Do+Mastro+Lisboa",FALSE,"938875811",NA,NA,NA
454,"Campolide",38.72641,-9.16254,"Lisboa","Lisboa","Rua De Campolide","1070-26 Lisboa","http://maps.google.com/maps?z=12&t=m&q=Pingo+Doce+-+Rua+De+Campolide+Lisboa",FALSE,"938875454",NA,NA,NA
771,"Caneças",38.81046,-9.23036,"Odivelas","Lisboa","E.N. 250, Rua Major Rosa Bastos - Casal dos Sinais","1685-354 Odivelas","http://maps.google.com/maps?z=12&t=m&q=Pingo+Doce+-+E.N.+250%2C+Rua+Major+Rosa+Bastos+-+Casal+dos+Sinais+Odivelas",FALSE,"938875571",NA,NA,NA
314,"Canidelo - Azamboeira",41.116243,-8.6502535,"Vila Nova de Gaia","Porto","Av. Poeta Eugénio De Andrade - Canidelo","4400-708 Vila Nova de Gaia","http://maps.google.com/maps?z=12&t=m&q=Pingo+Doce+-+Av.+Poeta+Eug%C3%A9nio+De+Andrade+-+Canidelo+Vila+Nova+de+Gaia",FALSE,"938875314",NA,NA,NA
353,"Canidelo - Lavadores",41.129551,-8.651921,"Vila Nova de Gaia","Porto","Rua Quinta Do Castro","4400-711 Vila Nova de Gaia","http://maps.google.com/maps?z=12&t=m&q=Pingo+Doce+-+Rua+Quinta+Do+Castro+Vila+Nova+de+Gaia",FALSE,"938875353",NA,NA,NA
1003,"Capelas - Açores",37.8313541266028,-25.6871942619614,"Capelas","Açores","Rua da Grota da Cadima","9545-108 Capelas","http://maps.google.com/maps?z=12&t=m&q=Pingo+Doce+-+Rua+da+Grota+da+Cadima+Capelas",FALSE,"917868256",NA,NA,NA
394,"Capuchos",38.64752,-9.219729,"Almada","Setúbal","E.N. 10-1 - Aldeia dos Capuchos","2825-41 Almada","http://maps.google.com/maps?z=12&t=m&q=Pingo+Doce+-+E.N.+10-1+-+Aldeia+dos+Capuchos+Almada",FALSE,"938875394",NA,NA,NA
434,"Carcavelos - Estação CP",38.6884,-9.33847,"Cascais","Lisboa","Rua Marques da Mata","2775-606 Cascais","http://maps.google.com/maps?z=12&t=m&q=Pingo+Doce+-+Rua+Marques+da+Mata+Cascais",FALSE,"938875434",NA,NA,NA
416,"Carcavelos - Rebelva",38.6923,-9.34084,"Cascais","Lisboa","Rua Frei Hermano Da Câmara, Urb.Torres Miramar","2775-702 Cascais","http://maps.google.com/maps?z=12&t=m&q=Pingo+Doce+-+Rua+Frei+Hermano+Da+C%C3%A2mara%2C+Urb.Torres+Miramar+Cascais",FALSE,"938875416",NA,NA,NA
813,"Carcavelos - Riviera",38.685401917,-9.342715263,"Cascais","Lisboa","C.C. Riviera Center","2775-551 Cascais","http://maps.google.com/maps?z=12&t=m&q=Pingo+Doce+-+C.C.+Riviera+Center+Cascais",FALSE,"938875813",NA,NA,NA
814,"Carlos Mardel",38.73405,-9.13326,"Lisboa","Lisboa","Rua Carlos Mardel","1900-122 Lisboa","http://maps.google.com/maps?z=12&t=m&q=Pingo+Doce+-+Rua+Carlos+Mardel+Lisboa",FALSE,"938875814",NA,NA,NA
645,"Carnaxide - Alto dos Barronhos",38.71933,-9.230772,"Oeiras","Lisboa","Rua Fernando de Almeida","2790-229 Oeiras","http://maps.google.com/maps?z=12&t=m&q=Pingo+Doce+-+Rua+Fernando+de+Almeida+Oeiras",FALSE,"938877483",NA,NA,NA
417,"Carnaxide - Centro Comercial Solátia",38.7268,-9.2407,"Oeiras","Lisboa","C. Civico Carnaxide - Av. Portugal","2790-128 Oeiras","http://maps.google.com/maps?z=12&t=m&q=Pingo+Doce+-+C.+Civico+Carnaxide+-+Av.+Portugal+Oeiras",FALSE,"938875417",NA,NA,NA
644,"Carregado",39.0321873,-8.9911466,"Alenquer","Lisboa","Quinta do Poço - Azinhaga da Colónia - Guizandeira","2580-491 Alenquer","http://maps.google.com/maps?z=12&t=m&q=Pingo+Doce+-+Quinta+do+Po%C3%A7o+-+Azinhaga+da+Col%C3%B3nia+-+Guizandeira+Alenquer",FALSE,"938875860",NA,NA,NA
344,"Carregal do Sal",40.4339218139648,-8.00214958190917,"Carregal do Sal","Viseu","Rua Dona Maria Rita - Salzedas","3430-261 Carregal do Sal","http://maps.google.com/maps?z=12&t=m&q=Pingo+Doce+-+Rua+Dona+Maria+Rita+-+Salzedas+Carregal+do+Sal",FALSE,"938875344",1.625,NA,1.578
474,"Cartaxo",39.16862,-8.77664,"Cartaxo","Santarém","Sitio Da Portela - Rua Da Ponte, EN 3","2070-621 Cartaxo","http://maps.google.com/maps?z=12&t=m&q=Pingo+Doce+-+Sitio+Da+Portela+-+Rua+Da+Ponte%2C+EN+3+Cartaxo",FALSE,"938875892",1.605,1.758,1.536
730,"Carvalhos",41.056919,-8.567872,"Vila Nova de Gaia","Porto","Av. Dr. Moreira De Sousa","4415-382 Vila Nova de Gaia","http://maps.google.com/maps?z=12&t=m&q=Pingo+Doce+-+Av.+Dr.+Moreira+De+Sousa+Vila+Nova+de+Gaia",FALSE,"938875730",NA,NA,NA
826,"Cascais - Castelhana",38.713108063,-9.413756371,"Cascais","Lisboa","Rua Outeiro","2755-287 Cascais","http://maps.google.com/maps?z=12&t=m&q=Pingo+Doce+-+Rua+Outeiro+Cascais",FALSE,"938875826",NA,NA,NA
891,"Cascais - Guia",38.7010135,-9.4345104,"Cascais","Lisboa","Avenida Pedro Álvares Cabral","2750-642 Cascais","http://maps.google.com/maps?z=12&t=m&q=Pingo+Doce+-+Avenida+Pedro+%C3%81lvares+Cabral+Cascais",FALSE,"938875253",NA,NA,NA
422,"Cascais-Villa",38.7016,-9.41772,"Cascais","Lisboa","Shopping Center - Avª D. Pedro I","2750-786 Cascais","http://maps.google.com/maps?z=12&t=m&q=Pingo+Doce+-+Shopping+Center+-+Av%C2%AA+D.+Pedro+I+Cascais",FALSE,"938875422",NA,NA,NA
306,"Castelo Branco - Av. 1º Maio",39.82164,-7.49448,"Castelo Branco","Castelo Branco","Av. 1º Maio nº60 6000-086","6000-86 Castelo Branco","http://maps.google.com/maps?z=12&t=m&q=Pingo+Doce+-+Av.+1%C2%BA+Maio+n%C2%BA60+6000-086++Castelo+Branco",FALSE,"938875306",NA,NA,NA
686,"Castelo Branco - Rua Cruz de Montalvão",39.80694444,-7.513611111,"Castelo Branco","Castelo Branco","C. C. Fórum Castelo Branco, Rua Nova Da Cruz De Montalvão, Cruz De Montalvão","6000-56 Castelo Branco","http://maps.google.com/maps?z=12&t=m&q=Pingo+Doce+-+C.+C.+F%C3%B3rum+Castelo+Branco%2C+Rua+Nova+Da+Cruz+De+Montalv%C3%A3o%2C+Cruz+De+Montalv%C3%A3o+Castelo+Branco",FALSE,"938879686",1.625,NA,1.578
348,"Castêlo da Maia",41.264714,-8.614995,"Maia","Porto","Rua Engenheiro Frederico Ulrich, S. Pedro","4475-705 Maia","http://maps.google.com/maps?z=12&t=m&q=Pingo+Doce+-+Rua+Engenheiro+Frederico+Ulrich%2C+S.+Pedro+Maia",FALSE,"938875348",NA,NA,NA
471,"Castelo de Vide",39.4049,-7.4439,"Castelo de Vide","Portalegre","E.N. 246-1 - Quinta Da Moutosa","7320-138 Castelo de Vide","http://maps.google.com/maps?z=12&t=m&q=Pingo+Doce+-+E.N.+246-1+-+Quinta+Da+Moutosa+Castelo+de+Vide",FALSE,"938875122",NA,NA,NA
488,"Cavaleira - Algueirão 488",38.80708,-9.35057,"Sintra","Lisboa","Rua Cidade de Loulé - Urbanização Moinhos da Cavaleira","2725-9 Sintra","http://maps.google.com/maps?z=12&t=m&q=Pingo+Doce+-+Rua+Cidade+de+Loul%C3%A9+-+Urbaniza%C3%A7%C3%A3o+Moinhos+da+Cavaleira+Sintra",FALSE,"938040664",NA,NA,NA
624,"Cedofeita",41.153208,-8.618225,"Porto","Porto","Rua Da Cedofeita","4050-175 Porto","http://maps.google.com/maps?z=12&t=m&q=Pingo+Doce+-+Rua+Da+Cedofeita+Porto",FALSE,"938875624",NA,NA,NA
512,"Celorico de Basto",41.40057,-7.98882,"Celorico de Basto","Braga","Zona Industrial de Crespos - Britelo","4890-264 Celorico de Basto","http://maps.google.com/maps?z=12&t=m&q=Pingo+Doce+-+Zona+Industrial+de+Crespos+-+Britelo+Celorico+de+Basto",FALSE,"938040478",NA,NA,NA
660,"Cerveira - Lugar de Faias",41.9237,-8.75407,"Vila Nova de Cerveira","Viana do Castelo","Lugar De Faias Gondarém","4920-68 Vila Nova de Cerveira","http://maps.google.com/maps?z=12&t=m&q=Pingo+Doce+-+Lugar+De+Faias+Gondar%C3%A9m+Vila+Nova+de+Cerveira",FALSE,"251706010",NA,NA,NA
817,"Chamusca",39.3679,-8.47289,"Chamusca","Santarém","Rua Direita De S. Pedro - Estrada Nacional nº 118, Km 99,78","2140-98 Chamusca","http://maps.google.com/maps?z=12&t=m&q=Pingo+Doce+-+Rua+Direita+De+S.+Pedro+-+Estrada+Nacional+n%C2%BA+118%2C+Km+99%2C78+Chamusca",FALSE,"938875817",1.625,NA,1.578
486,"Chão do Loureiro",38.712156,-9.135215,"Lisboa","Lisboa","Largo Do Chão Loureiro","1100-145 Lisboa","http://maps.google.com/maps?z=12&t=m&q=Pingo+Doce+-+Largo+Do+Ch%C3%A3o+Loureiro+Lisboa",FALSE,"938040058",NA,NA,NA
879,"Chaves - Centro",41.7413198,-7.4747549,"Chaves","Vila Real","Av. Tenente Valadim","5400-558 Chaves","http://maps.google.com/maps?z=12&t=m&q=Pingo+Doce+-+Av.+Tenente+Valadim+Chaves",FALSE,"938 875 085",NA,NA,NA
643,"Chaves Centro Escolar",41.759451,-7.46828,"Chaves","Vila Real","Gaveto da Avenida da Cocanha e Rua Inácio Pizarro","5400-674 Chaves","http://maps.google.com/maps?z=12&t=m&q=Pingo+Doce+-+Gaveto+da+Avenida+da+Cocanha+e+Rua+In%C3%A1cio+Pizarro+Chaves",FALSE,"938878263",NA,NA,NA
874,"Circunvalação Asprela",41.1852588,-8.6097573,"Porto","Porto","Estrada Exterior da Circunvalação, E.N. 12","4200-163 Porto","http://maps.google.com/maps?z=12&t=m&q=Pingo+Doce+-+Estrada+Exterior+da+Circunvala%C3%A7%C3%A3o%2C+E.N.+12+Porto",FALSE,"938875129",NA,NA,NA
312,"Coimbra - Celas",40.2148,-8.41557,"Coimbra","Coimbra","Avenida Calouste Gulbenkian","3004-90 Coimbra","http://maps.google.com/maps?z=12&t=m&q=Pingo+Doce+-+Avenida+Calouste+Gulbenkian+Coimbra",FALSE,"938875312",NA,NA,NA
323,"Coimbra - Combatentes",40.20227,-8.41346,"Coimbra","Coimbra","Travessa dos Combatentes da Grande Guerra","3030-182 Coimbra","http://maps.google.com/maps?z=12&t=m&q=Pingo+Doce+-+Travessa+dos+Combatentes+da+Grande+Guerra+Coimbra",FALSE,"938875323",NA,NA,NA
638,"Coimbra - Eiras",40.252663638435,-8.42565107384871,"Coimbra","Coimbra","Rua Entre Vinhas","3020-497 Coimbra","http://maps.google.com/maps?z=12&t=m&q=Pingo+Doce+-+Rua+Entre+Vinhas+Coimbra",FALSE,"938040239",NA,NA,NA
396,"Coimbra - Portela",40.1890272397582,-8.40188455607859,"Coimbra","Coimbra","Quinta da Portela","3030-481 Coimbra","http://maps.google.com/maps?z=12&t=m&q=Pingo+Doce+-+Quinta+da+Portela+Coimbra",FALSE,"938878396",NA,NA,NA
352,"Coimbra - Rua da Sofia",40.212929846867,-8.43158733838209,"Coimbra","Coimbra","Rua João de Ruão","3000-229 Coimbra","http://maps.google.com/maps?z=12&t=m&q=Pingo+Doce+-+Rua+Jo%C3%A3o+de+Ru%C3%A3o+Coimbra",FALSE,"938875352",NA,NA,NA
614,"Coimbrões",41.129306,-8.629836,"Vila Nova de Gaia","Porto","Rua Bombeiros Voluntários De Coimbrões","4400-57 Vila Nova de Gaia","http://maps.google.com/maps?z=12&t=m&q=Pingo+Doce+-+Rua+Bombeiros+Volunt%C3%A1rios+De+Coimbr%C3%B5es+Vila+Nova+de+Gaia",FALSE,"938877614",NA,NA,NA
408,"Colina do Sol",38.76428,-9.20699,"Amadora","Lisboa","Praceta Manuela Porto","2700-554 Amadora","http://maps.google.com/maps?z=12&t=m&q=Pingo+Doce+-+Praceta+Manuela+Porto+Amadora",FALSE,"938875408",NA,NA,NA
530,"Condeixa-a-Nova",40.107789,-8.511325,"Condeixa-a-Nova","Coimbra","E.N. 342, Quinta da Pereira","3150-259 Condeixa-a-Nova","http://maps.google.com/maps?z=12&t=m&q=Pingo+Doce+-+E.N.+342%2C+Quinta+da+Pereira+Condeixa-a-Nova",FALSE,"938875295",NA,NA,NA
383,"Constituição",41.162669,-8.614421,"Porto","Porto","Rua Monte Pedral","4050-417 Porto","http://maps.google.com/maps?z=12&t=m&q=Pingo+Doce+-+Rua+Monte+Pedral+Porto",FALSE,"938875383",NA,NA,NA
485,"Corroios - Parque Luso",38.639467,-9.160903,"Seixal","Setúbal","Av. D. Afonso Henriques, Parque Luso","2855-721 Seixal","http://maps.google.com/maps?z=12&t=m&q=Pingo+Doce+-+Av.+D.+Afonso+Henriques%2C+Parque+Luso+Seixal",FALSE,"938876489",NA,NA,NA
472,"Corroios - Santa Marta",38.62638889,-9.152777778,"Corroios","Setúbal","Rua Manuel Ferreira","2855-597 Corroios","http://maps.google.com/maps?z=12&t=m&q=Pingo+Doce+-+Rua+Manuel+Ferreira+Corroios",FALSE,"938875472",NA,NA,NA
871,"Corroios EN10",38.6329148,-9.1431749,"Seixal","Setúbal","Quinta da Argena","2855-408 Seixal","http://maps.google.com/maps?z=12&t=m&q=Pingo+Doce+-+Quinta+da+Argena+Seixal",FALSE,"938870056",NA,NA,NA
845,"Coruche",38.9599,-8.5276,"Coruche","Santarém","Rua Do Cortiço, Sto. António","2100-48 Coruche","http://maps.google.com/maps?z=12&t=m&q=Pingo+Doce+-+Rua+Do+Corti%C3%A7o%2C+Sto.+Ant%C3%B3nio+Coruche",FALSE,"938875845",1.625,NA,1.578
357,"Costa Cabral",41.176151,-8.585494,"Porto","Porto","Edf. Santa Justa - Rua Costa Cabral","4200-124 Porto","http://maps.google.com/maps?z=12&t=m&q=Pingo+Doce+-+Edf.+Santa+Justa+-+Rua+Costa+Cabral+Porto",FALSE,"938875357",NA,NA,NA
642,"Cova da Piedade",38.673892,-9.159705,"Almada","Setúbal","Avenida Rainha D. Leonor","2805-7 Almada","http://maps.google.com/maps?z=12&t=m&q=Pingo+Doce+-+Avenida+Rainha+D.+Leonor+Almada",FALSE,"938875167",NA,NA,NA
673,"Covilhã - Quinta do Alvito",40.2832984924316,-7.50376987457275,"Covilhã","Castelo Branco","Alameda Pêro da Covilhã - Quinta Do Alvito","6200-251 Covilhã","http://maps.google.com/maps?z=12&t=m&q=Pingo+Doce+-+Alameda+P%C3%AAro+da+Covilh%C3%A3+-+Quinta+Do+Alvito+Covilh%C3%A3",FALSE,"938045698",NA,NA,NA
376,"Custóias",41.197764,-8.636842,"Matosinhos","Porto","Rua Santiago","4465-638 Matosinhos","http://maps.google.com/maps?z=12&t=m&q=Pingo+Doce+-+Rua+Santiago+Matosinhos",FALSE,"938875376",NA,NA,NA
832,"Damaia",38.74292,-9.21831,"Amadora","Lisboa","Rua Teófilo Braga","2720-526 Amadora","http://maps.google.com/maps?z=12&t=m&q=Pingo+Doce+-+Rua+Te%C3%B3filo+Braga+Amadora",FALSE,"938875423",NA,NA,NA
529,"Elvas",38.875474,-7.186938,"Elvas","Portalegre","Rua Dr. José Pardal de Melo e Sousa","7350-208 Elvas","http://maps.google.com/maps?z=12&t=m&q=Pingo+Doce+-+Rua+Dr.+Jos%C3%A9+Pardal+de+Melo+e+Sousa+Elvas",FALSE,"938875089",NA,NA,NA
468,"Entroncamento",39.4619,-8.46863,"Entroncamento","Santarém","Rua D. João De Castro","2330-138 Entroncamento","http://maps.google.com/maps?z=12&t=m&q=Pingo+Doce+-+Rua+D.+Jo%C3%A3o+De+Castro+Entroncamento",FALSE,"938875468",NA,NA,NA
870,"Entroncamento - Lameira",39.4785489,-8.4708067,"Entroncamento","Santarém","Avenida das Forças Armadas","2330-65 Entroncamento","http://maps.google.com/maps?z=12&t=m&q=Pingo+Doce+-+Avenida+das+For%C3%A7as+Armadas+Entroncamento",FALSE,"938870380",NA,NA,NA
363,"Ermesinde - Praceta Moçambique",41.213151,-8.559111,"Valongo","Porto","Gaveto Da Praceta De Moçambique Com A Travessa De Angola","4445-308 Valongo","http://maps.google.com/maps?z=12&t=m&q=Pingo+Doce+-+Gaveto+Da+Praceta+De+Mo%C3%A7ambique+Com+A+Travessa+De+Angola+Valongo",FALSE,"938875563",NA,NA,NA
742,"Esmoriz",40.95339,-8.62443,"Ovar","Aveiro","E.N.109 - Lugar de Matosinhos","3885-434 Ovar","http://maps.google.com/maps?z=12&t=m&q=Pingo+Doce+-+E.N.109+-+Lugar+de+Matosinhos+Ovar",FALSE,"938875742",NA,NA,NA
625,"Espinho - Rua 21",41.00801,-8.64351,"Espinho","Aveiro","Rua 21","4500-267 Espinho","http://maps.google.com/maps?z=12&t=m&q=Pingo+Doce+-+Rua+21+Espinho",FALSE,"938875625",NA,NA,NA
833,"Espinho Fosforeira",41.001855734839,-8.64057111779403,"Espinho","Aveiro","Rua nº20","4500-322 Espinho","http://maps.google.com/maps?z=12&t=m&q=Pingo+Doce+-+Rua+n%C2%BA20++Espinho",FALSE,"938875034",NA,NA,NA
467,"Estarreja",40.7622711671233,-8.57063627256139,"Estarreja","Aveiro","Rua Dr. Tavares Da Silva","3860-377 Estarreja","http://maps.google.com/maps?z=12&t=m&q=Pingo+Doce+-+Rua+Dr.+Tavares+Da+Silva+Estarreja",FALSE,"938875567",1.625,NA,1.578
872,"Estoril Amoreira",38.7145099,-9.4054913,"Cascais","Lisboa","Avenida João Bosco - Vale da Amoreira","2765-131 Cascais","http://maps.google.com/maps?z=12&t=m&q=Pingo+Doce+-+Avenida+Jo%C3%A3o+Bosco+-+Vale+da+Amoreira+Cascais",FALSE,"938875043",NA,NA,NA
436,"Estrada Da Luz",38.75083,-9.17173,"Lisboa","Lisboa","Atlanta Park - Edf.Georgia - Rua Abranches Ferrão","1600-1 Lisboa","http://maps.google.com/maps?z=12&t=m&q=Pingo+Doce+-+Atlanta+Park+-+Edf.Georgia+-+Rua+Abranches+Ferr%C3%A3o+Lisboa",FALSE,"938875436",NA,NA,NA
433,"Estremoz",38.8388,-7.57935,"Estremoz","Évora","Rua 20 de Janeiro - Courela Do Bairro Santo António","7100-100 Estremoz","http://maps.google.com/maps?z=12&t=m&q=Pingo+Doce+-+Rua+20+de+Janeiro+-+Courela+Do+Bairro+Santo+Ant%C3%B3nio+Estremoz",FALSE,"938875433",1.625,NA,1.578
495,"Évora - Álamos",38.5746756424847,-7.89758205413818,"Évora","Évora","Av. Bento Jesus Caraça","7000-135 Évora","http://maps.google.com/maps?z=12&t=m&q=Pingo+Doce+-+Av.+Bento+Jesus+Cara%C3%A7a+%C3%89vora",FALSE,"938875406",NA,NA,NA
849,"Évora - Bairro Senhora da Glória",38.56944444,-7.922222222,"Évora","Évora","Bairro Sra. Da Glória, Praceta Angra Do Heroísmo","7000-726 Évora","http://maps.google.com/maps?z=12&t=m&q=Pingo+Doce+-+Bairro+Sra.+Da+Gl%C3%B3ria%2C+Praceta+Angra+Do+Hero%C3%ADsmo+%C3%89vora",FALSE,"938875849",NA,NA,NA
693,"Évora - EN 114",38.567279816,-7.942560196,"Évora","Évora","E.N. 114 Km 4,5","7000-172 Évora","http://maps.google.com/maps?z=12&t=m&q=Pingo+Doce+-+E.N.+114+Km+4%2C5+%C3%89vora",FALSE,"938875267",NA,NA,NA
751,"Évora - Horta das Figueiras",38.56018,-7.91448,"Évora","Évora","Estrada De Viana, Talhão N.º 2 Da Zona Ind.","7005-212 Évora","http://maps.google.com/maps?z=12&t=m&q=Pingo+Doce+-+Estrada+De+Viana%2C+Talh%C3%A3o+N.%C2%BA+2+Da+Zona+Ind.++%C3%89vora",FALSE,"938875551",NA,NA,NA
728,"Fafe - Aliados",41.45469,-8.17946,"Fafe","Braga","Rua Dos Aliados","4820-248 Fafe","http://maps.google.com/maps?z=12&t=m&q=Pingo+Doce+-+Rua+Dos+Aliados+Fafe",FALSE,"938875728",NA,NA,NA
367,"Fafe - Av. Brasil",41.4484481811523,-8.17339038848876,"Fafe","Braga","Av. Do Brasil","4820-121 Fafe","http://maps.google.com/maps?z=12&t=m&q=Pingo+Doce+-+Av.+Do+Brasil+Fafe",FALSE,"938875367",NA,NA,NA
661,"Fafe - Cavadas",41.44494,-8.16538,"Fafe","Braga","Lugar de Cavadas - Quinchães","4820-587 Fafe","http://maps.google.com/maps?z=12&t=m&q=Pingo+Doce+-+Lugar+de+Cavadas+-+Quinch%C3%A3es+Fafe",FALSE,"253509130",1.625,NA,1.578
722,"Famalicão - Calendário",41.40125,-8.520075,"Vila Nova de Famalicão","Braga","Alameda dos Bargos","4760-174 Vila Nova de Famalicão","http://maps.google.com/maps?z=12&t=m&q=Pingo+Doce+-+Alameda+dos+Bargos+Vila+Nova+de+Famalic%C3%A3o",FALSE,"938875522",NA,NA,NA
316,"Famalicão - D. Sancho",41.4120712280273,-8.51751995086669,"Vila Nova de Famalicão","Braga","Rua José Gomes de Matos","4760-325 Vila Nova de Famalicão","http://maps.google.com/maps?z=12&t=m&q=Pingo+Doce+-+Rua+Jos%C3%A9+Gomes+de+Matos+Vila+Nova+de+Famalic%C3%A3o",FALSE,"938875316",NA,NA,NA
712,"Famões",38.79125,-9.21373,"Odivelas","Lisboa","Quinta Do Segulim","1685-256 Odivelas","http://maps.google.com/maps?z=12&t=m&q=Pingo+Doce+-+Quinta+Do+Segulim+Odivelas",FALSE,"938875712",NA,NA,NA
694,"Faro - EN 125 Sitio das Figuras",37.0279,-7.94648,"Faro","Faro","E.N. 125, Sitio Das Figuras","8005-328 Faro","http://maps.google.com/maps?z=12&t=m&q=Pingo+Doce+-+E.N.+125%2C+Sitio+Das+Figuras+Faro",FALSE,"938040146",NA,NA,NA
818,"Faro - Penha Mega",37.0246,-7.9257,"Faro","Faro","Rua Monsenhor Henrique Ferreira da Silva","8005-329 Faro","http://maps.google.com/maps?z=12&t=m&q=Pingo+Doce+-+Rua+Monsenhor+Henrique+Ferreira+da+Silva+Faro",FALSE,"938875618",NA,NA,NA
827,"Faro - Tridente",37.01828,-7.92773,"Faro","Faro","Edf. Tridente - Rua Dr. Cândido Guerreiro","8000-320 Faro","http://maps.google.com/maps?z=12&t=m&q=Pingo+Doce+-+Edf.+Tridente+-+Rua+Dr.+C%C3%A2ndido+Guerreiro+Faro",FALSE,"938875827",NA,NA,NA
639,"Faro Montenegro",37.0314046964562,-7.96706199645996,"Faro","Faro","E.N. 125-10","8005-146 Faro","http://maps.google.com/maps?z=12&t=m&q=Pingo+Doce+-+E.N.+125-10+Faro",FALSE,"938040419",NA,NA,NA
778,"Fátima - EN",39.624,-8.66222,"Ourém","Santarém","Estrada Principal de Fátima (EN 356) - Lugar de Penascosa - Cova da Iria","2495-552 Ourém","http://maps.google.com/maps?z=12&t=m&q=Pingo+Doce+-+Estrada+Principal+de+F%C3%A1tima+%28EN+356%29+-+Lugar+de+Penascosa+-+Cova+da+Iria+Our%C3%A9m",FALSE,"938875778",NA,NA,NA
448,"Fátima - Santuário",39.6325,-8.68036,"Ourém","Santarém","Av. D. José Alves Correia Da Silva","2495-402 Ourém","http://maps.google.com/maps?z=12&t=m&q=Pingo+Doce+-+Av.+D.+Jos%C3%A9+Alves+Correia+Da+Silva+Our%C3%A9m",FALSE,"938875448",NA,NA,NA
852,"Feijó",38.6571,-9.16258,"Almada","Setúbal","Rua Ary Dos Santos","2810-20 Almada","http://maps.google.com/maps?z=12&t=m&q=Pingo+Doce+-+Rua+Ary+Dos+Santos+Almada",FALSE,"932255666",NA,NA,NA
725,"Felgueiras",41.3608427,-8.201565,"Felgueiras","Porto","Rua D. Manuel Faria De Sousa, Lugar Da Agra","4610-178 Felgueiras","http://maps.google.com/maps?z=12&t=m&q=Pingo+Doce+-+Rua+D.+Manuel+Faria+De+Sousa%2C+Lugar+Da+Agra+Felgueiras",FALSE,"938875725",NA,NA,NA
310,"Fernão Magalhães",41.15007,-8.59848,"Porto","Porto","Campo 24 Agosto","4300-188 Porto","http://maps.google.com/maps?z=12&t=m&q=Pingo+Doce+-+Campo+24+Agosto+Porto",FALSE,"938875310",NA,NA,NA
828,"Ferreira Borges",38.715988159,-9.163860321,"Lisboa","Lisboa","Rua Ferreira Borges","1350-140 Lisboa","http://maps.google.com/maps?z=12&t=m&q=Pingo+Doce+-+Rua+Ferreira+Borges+Lisboa",FALSE,"938875828",NA,NA,NA
626,"Figueira da Foz - Av. Afonso Albuquerque",40.14873,-8.8503,"Figueira da Foz","Coimbra","Rua Afonso Albuquerque","3080-41 Figueira da Foz","http://maps.google.com/maps?z=12&t=m&q=Pingo+Doce+-+Rua+Afonso+Albuquerque+Figueira+da+Foz",FALSE,"938875626",NA,NA,NA
326,"Figueira da Foz - Buarcos",40.16333,-8.86472,"Figueira da Foz","Coimbra","Rua Rancho Das Cantarinhas","3080-250 Figueira da Foz","http://maps.google.com/maps?z=12&t=m&q=Pingo+Doce+-+Rua+Rancho+Das+Cantarinhas+Figueira+da+Foz",FALSE,"938875326",NA,NA,NA
727,"Figueira da Foz - Tavarede",40.16292222,-8.847536111,"Figueira da Foz","Coimbra","Avenida Dr. Francisco Sá Carneiro - Rotunda do Cavador","3080-853 Figueira da Foz","http://maps.google.com/maps?z=12&t=m&q=Pingo+Doce+-+Avenida+Dr.+Francisco+S%C3%A1+Carneiro+-+Rotunda+do+Cavador+Figueira+da+Foz",FALSE,"938875527",NA,NA,NA
458,"Fonte Nova",38.748311,-9.190772,"Lisboa","Lisboa","C.C. Fonte Nova - Rua Paulo Renato","1500-83 Lisboa","http://maps.google.com/maps?z=12&t=m&q=Pingo+Doce+-+C.C.+Fonte+Nova+-+Rua+Paulo+Renato+Lisboa",FALSE,"938875458",NA,NA,NA
608,"Forte da Casa",38.87361111,-9.053611111,"Vila Franca de Xira","Lisboa","E.N. 10, Polo Industrial,  Forte Da Casa","2625-460 Vila Franca de Xira","http://maps.google.com/maps?z=12&t=m&q=Pingo+Doce+-+E.N.+10%2C+Polo+Industrial%2C++Forte+Da+Casa+Vila+Franca+de+Xira",FALSE,"938875608",NA,NA,NA
627,"Foz",41.151861,-8.67719,"Porto","Porto","Rua Senhora Da Luz","4150-698 Porto","http://maps.google.com/maps?z=12&t=m&q=Pingo+Doce+-+Rua+Senhora+Da+Luz+Porto",FALSE,"938875627",NA,NA,NA
442,"Francisco Metrass",38.71802,-9.16635,"Lisboa","Lisboa","Rua Francisco Metrass","1350-144 Lisboa","http://maps.google.com/maps?z=12&t=m&q=Pingo+Doce+-+Rua+Francisco+Metrass+Lisboa",FALSE,"938875442",NA,NA,NA
534,"Freamunde",41.286947,-8.332859,"Paços de Ferreira","Porto","Rua de Santa Cruz - Lugar do Leigal","4590-306 Paços de Ferreira","http://maps.google.com/maps?z=12&t=m&q=Pingo+Doce+-+Rua+de+Santa+Cruz+-+Lugar+do+Leigal+Pa%C3%A7os+de+Ferreira",FALSE,"938870138",NA,NA,NA
674,"Fundão - Quinta da Areeira",40.16221,-7.49753,"Fundão","Castelo Branco","Travessa do Passal - Quinta da Areeira","6230-205 Fundão","http://maps.google.com/maps?z=12&t=m&q=Pingo+Doce+-+Travessa+do+Passal+-+Quinta+da+Areeira+Fund%C3%A3o",FALSE,"938042265",1.625,NA,1.578
602,"Gaia - Av. República",41.127884,-8.605878,"Vila Nova de Gaia","Porto","Av. República","4430-192 Vila Nova de Gaia","http://maps.google.com/maps?z=12&t=m&q=Pingo+Doce+-+Av.+Rep%C3%BAblica+Vila+Nova+de+Gaia",FALSE,"938875602",NA,NA,NA
743,"Gaia - Madalena",41.110408,-8.631788,"Vila Nova de Gaia","Porto","Rua António Fernando Almeida Pinto Tavares, Madalena","4405-332 Vila Nova de Gaia","http://maps.google.com/maps?z=12&t=m&q=Pingo+Doce+-+Rua+Ant%C3%B3nio+Fernando+Almeida+Pinto+Tavares%2C+Madalena+Vila+Nova+de+Gaia",FALSE,"938875543",NA,NA,NA
648,"Gaia Quinta Cravel",41.113279,-8.601031,"Vila Nova de Gaia","Porto","Quinta do Cravel","4430-111 Vila Nova de Gaia","http://maps.google.com/maps?z=12&t=m&q=Pingo+Doce+-+Quinta+do+Cravel+Vila+Nova+de+Gaia",FALSE,"938040099",NA,NA,NA
393,"Galhardas",38.75441,-9.16596,"Lisboa","Lisboa","Azinhaga Das Galhardas","1600-213 Lisboa","http://maps.google.com/maps?z=12&t=m&q=Pingo+Doce+-+Azinhaga+Das+Galhardas+Lisboa",FALSE,"938875893",NA,NA,NA
526,"Gandra",41.183949,-8.448072,"Paredes","Porto","Rua Nova de Fontes","4585-191 Paredes","http://maps.google.com/maps?z=12&t=m&q=Pingo+Doce+-+Rua+Nova+de+Fontes+Paredes",FALSE,"938040874",NA,NA,NA
340,"Gondomar - Direccional",41.135519,-8.535009,"Gondomar","Porto","Avenida Oliveira Martins","4420-230 Gondomar","http://maps.google.com/maps?z=12&t=m&q=Pingo+Doce+-+Avenida+Oliveira+Martins+Gondomar",FALSE,"938875340",NA,NA,NA
453,"Graça",38.719669,-9.129824,"Lisboa","Lisboa","Rua Graça","1170-170 Lisboa","http://maps.google.com/maps?z=12&t=m&q=Pingo+Doce+-+Rua+Gra%C3%A7a+Lisboa",FALSE,"938875453",NA,NA,NA
391,"Grão Vasco - Benfica",38.749473,-9.20355,"Lisboa","Lisboa","Avenida Grão Vasco","1500-339 Lisboa","http://maps.google.com/maps?z=12&t=m&q=Pingo+Doce+-+Avenida+Gr%C3%A3o+Vasco+Lisboa",FALSE,"938875391",NA,NA,NA
675,"Grijó - Lugar Barrancas",41.045471,-8.568053,"Vila Nova de Gaia","Porto","Rua da Boavista - Lugar das Barrancas","4415-549 Vila Nova de Gaia","http://maps.google.com/maps?z=12&t=m&q=Pingo+Doce+-+Rua+da+Boavista+-+Lugar+das+Barrancas+Vila+Nova+de+Gaia",FALSE,"938042267",1.625,NA,1.578
676,"Guarda - Bairro São Domingos",40.55902,-7.25075,"Guarda","Guarda","Quinta Do Camalhão, Bairro S. Domingos","6300-804 Guarda","http://maps.google.com/maps?z=12&t=m&q=Pingo+Doce+-+Quinta+Do+Camalh%C3%A3o%2C+Bairro+S.+Domingos+Guarda",FALSE,"938045312",1.625,NA,1.578
328,"Guarda - Gare",40.55104,-7.24616,"Guarda","Guarda","Av. S. Miguel - Guarda Gare","6300-864 Guarda","http://maps.google.com/maps?z=12&t=m&q=Pingo+Doce+-+Av.+S.+Miguel+-+Guarda+Gare+Guarda",FALSE,"938875328",NA,NA,NA
878,"Guifões",41.1978153,-8.6655912,"Guifões","Porto","Rua Passos Manuel","4460- Guifões","http://maps.google.com/maps?z=12&t=m&q=Pingo+Doce+-+Rua+Passos+Manuel+Guif%C3%B5es",FALSE,"938044360",NA,NA,NA
350,"Guimarães - Alameda",41.458,-8.31149,"Guimarães","Braga","Rua Alfredo Pimenta","4800-12 Guimarães","http://maps.google.com/maps?z=12&t=m&q=Pingo+Doce+-+Rua+Alfredo+Pimenta+Guimar%C3%A3es",FALSE,"938875366",NA,NA,NA
831,"Guimarães - Av. D. João IV",41.4366145,-8.2960171,"Guimarães","Braga","Rua de Vila Verde","4810-225 Guimarães","http://maps.google.com/maps?z=12&t=m&q=Pingo+Doce+-+Rua+de+Vila+Verde+Guimar%C3%A3es",FALSE,"938875057",NA,NA,NA
1,"Hiper",32.636354,-16.9319332,"Funchal","Madeira","Rua Do Gorgulho (Junto Piscinas Do Lido)","9000-107 Funchal","http://maps.google.com/maps?z=12&t=m&q=Pingo+Doce+-+Rua+Do+Gorgulho+%28Junto+Piscinas+Do+Lido%29+Funchal",FALSE,"291722080",NA,NA,NA
606,"Ílhavo",40.6035577535661,-8.66202020632045,"Ílhavo","Aveiro","Rua Professor Júlio Catarino","3830-216 Ílhavo","http://maps.google.com/maps?z=12&t=m&q=Pingo+Doce+-+Rua+Professor+J%C3%BAlio+Catarino+%C3%8Dlhavo",FALSE,"938875606",NA,NA,NA
875,"Joane",41.4391703,-8.4118943,"Joane","Braga","Rua de Leognan","4770-243 Joane","http://maps.google.com/maps?z=12&t=m&q=Pingo+Doce+-+Rua+de+Leognan+Joane",FALSE,"938875191",NA,NA,NA
761,"Lagoa",37.131412,-8.454163,"Lagoa","Faro","Rua Marquês de Pombal","8400-391 Lagoa","http://maps.google.com/maps?z=12&t=m&q=Pingo+Doce+-+Rua+Marqu%C3%AAs+de+Pombal+Lagoa",FALSE,"938875761",NA,NA,NA
766,"Lagos - Av. Da República",37.10728,-8.67936,"Lagos","Faro","Av. Da República, Rossio De São João","8600-643 Lagos","http://maps.google.com/maps?z=12&t=m&q=Pingo+Doce+-+Av.+Da+Rep%C3%BAblica%2C+Rossio+De+S%C3%A3o+Jo%C3%A3o+Lagos",FALSE,"938875566",NA,NA,NA
853,"Lagos - Marina",37.11352,-8.6772,"Lagos","Faro","Sitio Do Molião - E.N. 125","8600-335 Lagos","http://maps.google.com/maps?z=12&t=m&q=Pingo+Doce+-+Sitio+Do+Moli%C3%A3o+-+E.N.+125+Lagos",FALSE,"938875853",NA,NA,NA
629,"Lamego",41.098819732666,-7.80974006652832,"Lamego","Viseu","Rua Sobral Cide - Urbanização Da Ortigosa","5100-202 Lamego","http://maps.google.com/maps?z=12&t=m&q=Pingo+Doce+-+Rua+Sobral+Cide+-+Urbaniza%C3%A7%C3%A3o+Da+Ortigosa+Lamego",FALSE,"938875629",NA,NA,NA
401,"Lapa",38.71041,-9.161493,"Lisboa","Lisboa","Rua Santana à Lapa","1200-798 Lisboa","http://maps.google.com/maps?z=12&t=m&q=Pingo+Doce+-+Rua+Santana+%C3%A0+Lapa+Lisboa",FALSE,"938875401",NA,NA,NA
370,"Laranjeiro",38.64835,-9.15384,"Almada","Setúbal","Rua Artur Semedo - Quinta De Santo António","2810-278 Almada","http://maps.google.com/maps?z=12&t=m&q=Pingo+Doce+-+Rua+Artur+Semedo+-+Quinta+De+Santo+Ant%C3%B3nio+Almada",FALSE,"938875500",NA,NA,NA
805,"Largo do Rato",38.721145,-9.1548462,"Lisboa","Lisboa","Calçada Bento Da Rocha Cabral","1250-12 Lisboa","http://maps.google.com/maps?z=12&t=m&q=Pingo+Doce+-+Cal%C3%A7ada+Bento+Da+Rocha+Cabral+Lisboa",FALSE,"938875805",NA,NA,NA
374,"Lavra",41.254146,-8.707716,"Matosinhos","Porto","Rua Dos Castanheiros","4455-89 Matosinhos","http://maps.google.com/maps?z=12&t=m&q=Pingo+Doce+-+Rua+Dos+Castanheiros+Matosinhos",FALSE,"939885949",NA,NA,NA
734,"Leça da Palmeira - Amorosa",41.196239,-8.692535,"Matosinhos","Porto","Lugar Da Amorosa, Rua Dos Camposinhos","4450-630 Matosinhos","http://maps.google.com/maps?z=12&t=m&q=Pingo+Doce+-+Lugar+Da+Amorosa%2C+Rua+Dos+Camposinhos+Matosinhos",FALSE,"938875734",NA,NA,NA
605,"Leça da Palmeira - R. Fernando Aroso",41.19124,-8.69571,"Matosinhos","Porto","Rua Dr. Fernando Aroso","4450-666 Matosinhos","http://maps.google.com/maps?z=12&t=m&q=Pingo+Doce+-+Rua+Dr.+Fernando+Aroso+Matosinhos",FALSE,"938875000",NA,NA,NA
319,"Leiria - Heróis de Angola",39.7469259970268,-8.80440440028906,"Leiria","Leiria","Av. Heróis De Angola","2400-154 Leiria","http://maps.google.com/maps?z=12&t=m&q=Pingo+Doce+-+Av.+Her%C3%B3is+De+Angola+Leiria",FALSE,"918875319",NA,NA,NA
372,"Leiria - Marinheiros",39.7625,-8.8054,"Leiria","Leiria","Estrada Dos Marinheiros","2415-380 Leiria","http://maps.google.com/maps?z=12&t=m&q=Pingo+Doce+-+Estrada+Dos+Marinheiros+Leiria",FALSE,"938876372",NA,NA,NA
354,"Leiria - Marquês de Pombal",39.7405738617921,-8.80294192582369,"Leiria","Leiria","Av. Marquês Pombal - Galerias São José","2410-152 Leiria","http://maps.google.com/maps?z=12&t=m&q=Pingo+Doce+-+Av.+Marqu%C3%AAs+Pombal+-+Galerias+S%C3%A3o+Jos%C3%A9+Leiria",FALSE,"938875354",NA,NA,NA
716,"Leiria - Marrazes",39.75956389,-8.820147222,"Leiria","Leiria","Rua Estrada da Figueira da Foz, Rego D'Água - Marrazes","2415-303 Leiria","http://maps.google.com/maps?z=12&t=m&q=Pingo+Doce+-+Rua+Estrada+da+Figueira+da+Foz%2C+Rego+D%27%C3%81gua+-+Marrazes+Leiria",FALSE,"938875516",1.625,NA,1.578
498,"Leiria D. Dinis",39.7394168,-8.8184848,"Leiria","Leiria","Rua Dr João Soares","2400-448 Leiria","http://maps.google.com/maps?z=12&t=m&q=Pingo+Doce+-+Rua+Dr+Jo%C3%A3o+Soares+Leiria",FALSE,"938870269",NA,NA,NA
412,"Linda-a-Velha II",38.714862,-9.240527,"Oeiras","Lisboa","Avenida 25 de Abril","2795-198 Oeiras","http://maps.google.com/maps?z=12&t=m&q=Pingo+Doce+-+Avenida+25+de+Abril+Oeiras",FALSE,"938875412",NA,NA,NA
735,"Lordelo",41.231819,-8.407733,"Paredes","Porto","Rotunda Do Padrão - Rebordosa","4580-570 Paredes","http://maps.google.com/maps?z=12&t=m&q=Pingo+Doce+-+Rotunda+Do+Padr%C3%A3o+-+Rebordosa+Paredes",FALSE,"938875735",NA,NA,NA
755,"Loulé - Andrade de Sousa",37.13738,-8.0302,"Loulé","Faro","Av. Andrade De Sousa","8100-728 Loulé","http://maps.google.com/maps?z=12&t=m&q=Pingo+Doce+-+Av.+Andrade+De+Sousa+Loul%C3%A9",FALSE,"938875555",NA,NA,NA
855,"Loulé - Vieira",37.1391,-8.02008,"Loulé","Faro","Rua David Teixeira","8100-552 Loulé","http://maps.google.com/maps?z=12&t=m&q=Pingo+Doce+-+Rua+David+Teixeira+Loul%C3%A9",FALSE,"938875855",NA,NA,NA
647,"Loulé Mar Shopping",37.0985899,-7.9981129,"Loulé","Faro","C.C. Mar Shopping Loulé","8135-182 Loulé","http://maps.google.com/maps?z=12&t=m&q=Pingo+Doce+-+C.C.+Mar+Shopping+Loul%C3%A9+Loul%C3%A9",FALSE,"938875284",NA,NA,NA
687,"Loures",38.83667,-9.16841,"Loures","Lisboa","Quinta Das Farinheiras","2670-364 Loures","http://maps.google.com/maps?z=12&t=m&q=Pingo+Doce+-+Quinta+Das+Farinheiras+Loures",FALSE,"219826380",NA,NA,NA
696,"Lourinhã",39.24878,-9.31187,"Lourinhã","Lisboa","Avenida António José De Almeida","2530-113 Lourinhã","http://maps.google.com/maps?z=12&t=m&q=Pingo+Doce+-+Avenida+Ant%C3%B3nio+Jos%C3%A9+De+Almeida+Lourinh%C3%A3",FALSE,"938875696",NA,NA,NA
726,"Lourosa - Travanca",40.9730867438764,-8.53576755536778,"Santa Maria da Feira","Aveiro","Lugar Da Aldeia Nova, Travanca","4535-14 Santa Maria da Feira","http://maps.google.com/maps?z=12&t=m&q=Pingo+Doce+-+Lugar+Da+Aldeia+Nova%2C+Travanca+Santa+Maria+da+Feira",FALSE,"938875726",1.625,NA,1.578
308,"Lourosa - Vendas Novas",40.9884986877441,-8.54563045501708,"Santa Maria da Feira","Aveiro","Avenida de Lourosa","4535-12 Santa Maria da Feira","http://maps.google.com/maps?z=12&t=m&q=Pingo+Doce+-+Avenida+de+Lourosa+Santa+Maria+da+Feira",FALSE,"938875308",NA,NA,NA
662,"Lousada - Cristelo",41.26909,-8.28788,"Lousada","Porto","Rua De Santo André, Lugar Das Arcas - Cristelos","4620-134 Lousada","http://maps.google.com/maps?z=12&t=m&q=Pingo+Doce+-+Rua+De+Santo+Andr%C3%A9%2C+Lugar+Das+Arcas+-+Cristelos+Lousada",FALSE,"938041636",1.625,NA,1.578
455,"Lumiar",38.77224,-9.15996,"Lisboa","Lisboa","Rua Leopoldo Almeida","1750-138 Lisboa","http://maps.google.com/maps?z=12&t=m&q=Pingo+Doce+-+Rua+Leopoldo+Almeida+Lisboa",FALSE,"938875455",NA,NA,NA
465,"Mafra",38.94361111,-9.347777778,"Mafra","Lisboa","Quinta Das Pevides - Limite Dos Garfinhos","2640-389 Mafra","http://maps.google.com/maps?z=12&t=m&q=Pingo+Doce+-+Quinta+Das+Pevides+-+Limite+Dos+Garfinhos+Mafra",FALSE,"938875465",NA,NA,NA
305,"Maia - 5 Outubro",41.225199,-8.612961,"Maia","Porto","Rua 5 De Outubro - Gueifães","4470-2 Maia","http://maps.google.com/maps?z=12&t=m&q=Pingo+Doce+-+Rua+5+De+Outubro+-+Gueif%C3%A3es++Maia",FALSE,"938875305",NA,NA,NA
749,"Maia - Águas Santas",41.212811,-8.563135,"Maia","Porto","Rua D. Maria Faria","4425-70 Maia","http://maps.google.com/maps?z=12&t=m&q=Pingo+Doce+-+Rua+D.+Maria+Faria+Maia",FALSE,"938875749",NA,NA,NA
630,"Maia - Simão Bolívar",41.233701,-8.62442,"Maia","Porto","S. Simão Bolívar","4470-136 Maia","http://maps.google.com/maps?z=12&t=m&q=Pingo+Doce+-+S.+Sim%C3%A3o+Bol%C3%ADvar+Maia",FALSE,"938875630",NA,NA,NA
699,"Malveira",38.93002,-9.247699,"Mafra","Lisboa","E.N. 8, Limite Da Venda Do Valador","2665-258 Mafra","http://maps.google.com/maps?z=12&t=m&q=Pingo+Doce+-+E.N.+8%2C+Limite+Da+Venda+Do+Valador+Mafra",FALSE,"938875867",NA,NA,NA
380,"Mangualde",40.61536,-7.75871,"Mangualde","Viseu","Avenida Herois do Ultra Mar - Travessa da Lavandeira","3530-261 Mangualde","http://maps.google.com/maps?z=12&t=m&q=Pingo+Doce+-+Avenida+Herois+do+Ultra+Mar+-+Travessa+da+Lavandeira+Mangualde",FALSE,"938875380",1.625,NA,1.578
737,"Marco de Canaveses",41.17767,-8.15126,"Marco de Canaveses","Porto","Avenida do Futebol Clube do Porto","4630-203 Marco de Canaveses","http://maps.google.com/maps?z=12&t=m&q=Pingo+Doce+-+Avenida+do+Futebol+Clube+do+Porto+Marco+de+Canaveses",FALSE,"938875537",NA,NA,NA
494,"Marechal Gomes da Costa",41.1598845922432,-8.66018034517765,"Porto","Porto","Avenida Marechal Gomes Da Costa","4100-359 Porto","http://maps.google.com/maps?z=12&t=m&q=Pingo+Doce+-+Avenida+Marechal+Gomes+Da+Costa+Porto",FALSE,"939990380",NA,NA,NA
860,"Mariani",41.127458,-8.623589,"Vila Nova de Gaia","Porto","Rua Barão do Corvo","4400-37 Vila Nova de Gaia","http://maps.google.com/maps?z=12&t=m&q=Pingo+Doce+-++Rua+Bar%C3%A3o+do+Corvo+Vila+Nova+de+Gaia",FALSE,"938870101",NA,NA,NA
535,"Marinha da Guia",39.9659675,-8.7918676,"Pombal","Leiria","Cabeço do Carriço - Estrada Nacional 109","3105-56 Pombal","http://maps.google.com/maps?z=12&t=m&q=Pingo+Doce+-+Cabe%C3%A7o+do+Carri%C3%A7o+-+Estrada+Nacional+109+Pombal",FALSE,"938870981",NA,NA,NA
415,"Marinha Grande - Av. Liberdade",39.7454,-8.93015,"Marinha Grande","Leiria","C.C. Horizonte - Av. Liberdade","2430-229 Marinha Grande","http://maps.google.com/maps?z=12&t=m&q=Pingo+Doce+-+C.C.+Horizonte+-+Av.+Liberdade+Marinha+Grande",FALSE,"938875415",NA,NA,NA
717,"Marinha Grande - Embra",39.74713,-8.91253,"Marinha Grande","Leiria","E.N. 242, Rua Jornal Da Marinha Grande, Embra","2430-110 Marinha Grande","http://maps.google.com/maps?z=12&t=m&q=Pingo+Doce+-+E.N.+242%2C+Rua+Jornal+Da+Marinha+Grande%2C+Embra+Marinha+Grande",FALSE,"938875717",NA,NA,NA
632,"Marquês",41.160969,-8.606549,"Porto","Porto","Rua João Pedro Ribeiro","4000-305 Porto","http://maps.google.com/maps?z=12&t=m&q=Pingo+Doce+-+Rua+Jo%C3%A3o+Pedro+Ribeiro+Porto",FALSE,"938875632",NA,NA,NA
407,"Massamá - Jasmins",38.7578,-9.27565,"Sintra","Lisboa","Rua das Dálias","2745-749 Sintra","http://maps.google.com/maps?z=12&t=m&q=Pingo+Doce+-+Rua+das+D%C3%A1lias+Sintra",FALSE,"938875407",NA,NA,NA
428,"Massamá - Pimenta e Rendeiro",38.7528,-9.28456,"Sintra","Lisboa","Avenida 25 de Abril - Urbanização Pimenta Rendeiro","2745-862 Sintra","http://maps.google.com/maps?z=12&t=m&q=Pingo+Doce+-+Avenida+25+de+Abril+-+Urbaniza%C3%A7%C3%A3o+Pimenta+Rendeiro+Sintra",FALSE,"938875428",NA,NA,NA
4081,"Massamá Refer",38.7518805,-9.2835729,"Queluz","Lisboa","Estação CP Massamá, Avenida 25 de Abril","2745-704 Queluz","http://maps.google.com/maps?z=12&t=m&q=Pingo+Doce+-+Esta%C3%A7%C3%A3o+CP+Massam%C3%A1%2C+Avenida+25+de+Abril+Queluz",FALSE,"938875225",NA,NA,NA
302,"Matosinhos - Afonso Henriques",41.180945,-8.68267,"Matosinhos","Porto","Gav. Av. D. Afonso Henriques, 946 4450-243 Matosinhos","4450-243 Matosinhos","http://maps.google.com/maps?z=12&t=m&q=Pingo+Doce+-+Gav.+Av.+D.+Afonso+Henriques%2C+946+4450-243+Matosinhos+Matosinhos",FALSE,"938875302",NA,NA,NA
633,"Matosinhos - Brito Capelo",41.184467,-8.692194,"Matosinhos","Porto","Rua Brito Capelo","4450-68 Matosinhos","http://maps.google.com/maps?z=12&t=m&q=Pingo+Doce+-+Rua+Brito+Capelo+Matosinhos",FALSE,"938875633",NA,NA,NA
496,"Matosinhos - Brito e Cunha",41.175741,-8.68885,"Matosinhos","Porto","Rua Brito e Cunha","4450-84 Matosinhos","http://maps.google.com/maps?z=12&t=m&q=Pingo+Doce+-+Rua+Brito+e+Cunha+Matosinhos",FALSE,"938040473",NA,NA,NA
893,"Mealhada",40.3879222218954,-8.45061235799057,"Mealhada","Melhada","Avenida Floresta – EN1 Nº151","3050-347 Mealhada","http://maps.google.com/maps?z=12&t=m&q=Pingo+Doce+-+Avenida+Floresta+%E2%80%93+EN1+N%C2%BA151+Mealhada",FALSE,"231248360",NA,NA,NA
707,"Mem Martins - António Feijó",38.78651,-9.33977,"Sintra","Lisboa","Estrada Mem Martins","2725-166 Sintra","http://maps.google.com/maps?z=12&t=m&q=Pingo+Doce+-+Estrada+Mem+Martins+Sintra",FALSE,"938875507",NA,NA,NA
477,"Mem Martins - Estação",38.79658,-9.3422,"Sintra","Lisboa","Estrada Mem Martins","2725-384 Sintra","http://maps.google.com/maps?z=12&t=m&q=Pingo+Doce+-+Estrada+Mem+Martins+Sintra",FALSE,"938875577",NA,NA,NA
462,"Mem Martins - São Carlos",38.78807,-9.34666,"Mem Martins","Lisboa","Rua do Codel","2725-274 Mem Martins","http://maps.google.com/maps?z=12&t=m&q=Pingo+Doce+-+Rua+do+Codel+Mem+Martins",FALSE,"938875426",NA,NA,NA
515,"Minde",39.519616,-8.686244,"Alcanena","Santarém","Rua Nossa Sra De Fátima","2395-116 Alcanena","http://maps.google.com/maps?z=12&t=m&q=Pingo+Doce+-+Rua+Nossa+Sra+De+F%C3%A1tima+Alcanena",FALSE,"938040109",NA,NA,NA
514,"Mira",40.435634,-8.727882,"Mira","Coimbra","Rua Teófilo Braga","3070-333 Mira","http://maps.google.com/maps?z=12&t=m&q=Pingo+Doce+-+Rua+Te%C3%B3filo+Braga+Mira",FALSE,"931114518",NA,NA,NA
444,"Miraflores",38.71016,-9.2282,"Oeiras","Lisboa","Miraflores Shopping - Rua das Tulipas","1495-158 Oeiras","http://maps.google.com/maps?z=12&t=m&q=Pingo+Doce+-+Miraflores+Shopping+-+Rua+das+Tulipas+Oeiras",FALSE,"938875444",NA,NA,NA
510,"Miranda do Douro",41.50759,-6.287518,"Miranda do Douro","Bragança","E.N. 218, Lugar Da Castanha","5210-175 Miranda do Douro","http://maps.google.com/maps?z=12&t=m&q=Pingo+Doce+-+E.N.+218%2C+Lugar+Da+Castanha++Miranda+do+Douro",FALSE,"938896077",NA,NA,NA
677,"Mirandela - Lugar de Telheiros",41.49655,-7.17939,"Mirandela","Bragança","Avenida da Galia - Lugar De Telheiros","5370-203 Mirandela","http://maps.google.com/maps?z=12&t=m&q=Pingo+Doce+-+Avenida+da+Galia+-+Lugar+De+Telheiros+Mirandela",FALSE,"938042839",1.625,NA,1.578
808,"Moinhos da Funcheira",38.7791412,-9.2330485,"Amadora","Lisboa","Av. Dr. Fernando Piteira Santos","2650-123 Amadora","http://maps.google.com/maps?z=12&t=m&q=Pingo+Doce+-+Av.+Dr.+Fernando+Piteira+Santos+Amadora",FALSE,"938875221",NA,NA,NA
759,"Moita",38.6505828,-9.0015678,"Moita","Setúbal","E.N. 11, Quinta Fonte Da Prata","2860-6 Moita","http://maps.google.com/maps?z=12&t=m&q=Pingo+Doce+-+E.N.+11%2C+Quinta+Fonte+Da+Prata+Moita",FALSE,"938875759",1.625,NA,1.578
663,"Monção - Gandra",42.0625,-8.506111111,"Monção","Viana do Castelo","Gandra - Mazedo","4950-298 Monção","http://maps.google.com/maps?z=12&t=m&q=Pingo+Doce+-+Gandra+-+Mazedo+Mon%C3%A7%C3%A3o",FALSE,"938042733",1.625,NA,1.578
847,"Montemor-o-Novo",38.64583,-8.201667,"Montemor-o-Novo","Évora","Av. Gago Coutinho, Cruzamento EN 4 e EN 114","7050-96 Montemor-o-Novo","http://maps.google.com/maps?z=12&t=m&q=Pingo+Doce+-+Av.+Gago+Coutinho%2C+Cruzamento+EN+4+e+EN+114+Montemor-o-Novo",FALSE,"938875109",NA,NA,NA
753,"Montijo - Estrada Nacional",38.704652,-8.95732,"Montijo","Setúbal","E.N. 4, 1, Pocinho Das Nascentes","2870-184 Montijo","http://maps.google.com/maps?z=12&t=m&q=Pingo+Doce+-+E.N.+4%2C+1%2C+Pocinho+Das+Nascentes+Montijo",FALSE,"938875753",NA,NA,NA
635,"Montijo - Maestro J. Peixinho",38.7110765,-8.9849289,"Montijo","Setúbal","Av. Maestro J. Peixinho","2270-10 Montijo","http://maps.google.com/maps?z=12&t=m&q=Pingo+Doce+-+Av.+Maestro+J.+Peixinho+Montijo",FALSE,"938875955",NA,NA,NA
729,"Moreira da Maia",41.25546,-8.649915,"Maia","Porto","Rua Eng.º Frederico Ulrich, Moreira Da Maia","4470-605 Maia","http://maps.google.com/maps?z=12&t=m&q=Pingo+Doce+-+Rua+Eng.%C2%BA+Frederico+Ulrich%2C+Moreira+Da+Maia+Maia",FALSE,"938875729",NA,NA,NA
819,"Moscavide - Jardins de Cristo Rei",38.7815,-9.10875,"Loures","Lisboa","Urbanização Jardins De Cristo Rei","1885-94 Loures","http://maps.google.com/maps?z=12&t=m&q=Pingo+Doce+-+Urbaniza%C3%A7%C3%A3o+Jardins+De+Cristo+Rei+Loures",FALSE,"938875461",NA,NA,NA
823,"Moura",38.139967,-7.445487,"Moura","Beja","Rua Eng.º Armando Lopes De Almeida Manso","7860-4 Moura","http://maps.google.com/maps?z=12&t=m&q=Pingo+Doce+-+Rua+Eng.%C2%BA+Armando+Lopes+De+Almeida+Manso+Moura",FALSE,"938875823",NA,NA,NA
709,"Nazaré",39.608238,-9.065861,"Nazaré","Leiria","E.N. 242, Areal","2450-138 Nazaré","http://maps.google.com/maps?z=12&t=m&q=Pingo+Doce+-+E.N.+242%2C+Areal+Nazar%C3%A9",FALSE,"938875509",NA,NA,NA
345,"Nelas",40.5302581787109,-7.85507011413574,"Nelas","Viseu","Avenida Prof. Dr. Fortunato de Almeida -Vale de Senhorim","3520-56 Nelas","http://maps.google.com/maps?z=12&t=m&q=Pingo+Doce+-+Avenida+Prof.+Dr.+Fortunato+de+Almeida+-Vale+de+Senhorim+Nelas",FALSE,"938875345",NA,NA,NA
409,"Óbidos",39.35224,-9.1596,"Óbidos","Leiria","E.N. 8","2510-131 Óbidos","http://maps.google.com/maps?z=12&t=m&q=Pingo+Doce+-+E.N.+8+%C3%93bidos",FALSE,"938875409",NA,NA,NA
834,"Odivelas - D. Dinis",38.7883453550856,-9.17872125282884,"Odivelas","Lisboa","Av. D. Dinis","2675-327 Odivelas","http://maps.google.com/maps?z=12&t=m&q=Pingo+Doce+-+Av.+D.+Dinis+Odivelas",FALSE,"938875834",NA,NA,NA
777,"Odivelas - Freixinho",38.78431,-9.18528,"Odivelas","Lisboa","Rua António Feliciano de Castilho -  Lugar de Freixinho - Várzea de Pombais","2675-473 Odivelas","http://maps.google.com/maps?z=12&t=m&q=Pingo+Doce+-+Rua+Ant%C3%B3nio+Feliciano+de+Castilho+-++Lugar+de+Freixinho+-+V%C3%A1rzea+de+Pombais+Odivelas",FALSE,"938875777",NA,NA,NA
659,"Odivelas - Hiper",38.781551361,-9.193380356,"Odivelas","Lisboa","Strada Shopping - Estrada da Paiã - Casal do Troca","2675-468 Odivelas","http://maps.google.com/maps?z=12&t=m&q=Pingo+Doce+-+Strada+Shopping+-+Estrada+da+Pai%C3%A3+-+Casal+do+Troca+Odivelas",FALSE,"938041105",NA,NA,NA
424,"Oeiras - Alto da Barra",38.6805,-9.31947,"Oeiras","Lisboa","R. Aljubarrota 1A","2780-53 Oeiras","http://maps.google.com/maps?z=12&t=m&q=Pingo+Doce+-+R.+Aljubarrota+1A+Oeiras",FALSE,"938875424",NA,NA,NA
835,"Oeiras - Palmeiras Shopping",38.6929,-9.32641,"Oeiras","Lisboa","C.C. Palmeiras - Qtª. Palmeiras","2780-149 Oeiras","http://maps.google.com/maps?z=12&t=m&q=Pingo+Doce+-+C.C.+Palmeiras+-+Qt%C2%AA.+Palmeiras+Oeiras",FALSE,"938875835",NA,NA,NA
836,"Olaias",38.73928,-9.12472,"Lisboa","Lisboa","C. C. Olaias - Av. Engº. Arantes Oliveira","1900-221 Lisboa","http://maps.google.com/maps?z=12&t=m&q=Pingo+Doce+-+C.+C.+Olaias+-+Av.+Eng%C2%BA.+Arantes+Oliveira+Lisboa",FALSE,"938875836",NA,NA,NA
837,"Olhão - Marina",37.0253,-7.83762,"Olhão","Faro","Rua Manuel Tomé Viegas Vaz","8700-461 Olhão","http://maps.google.com/maps?z=12&t=m&q=Pingo+Doce+-+Rua+Manuel+Tom%C3%A9+Viegas+Vaz+Olh%C3%A3o",FALSE,"938875837",NA,NA,NA
756,"Olhão - Patinha",37.037066,-7.832254,"Olhão","Faro","E.N. 125, Urbanização Patinha, Peares - Freguesia De Quelfes","8700-203 Olhão","http://maps.google.com/maps?z=12&t=m&q=Pingo+Doce+-+E.N.+125%2C+Urbaniza%C3%A7%C3%A3o+Patinha%2C+Peares+-+Freguesia+De+Quelfes+Olh%C3%A3o",FALSE,"938875756",NA,NA,NA
873,"Olivais - Avenida Infante D. Henrique",38.7666833,-9.1047836,"Lisboa","Lisboa","Av. Infante D. Henrique","1800-318 Lisboa","http://maps.google.com/maps?z=12&t=m&q=Pingo+Doce+-+Av.+Infante+D.+Henrique+Lisboa",FALSE,"938875088",NA,NA,NA
843,"Olivais Shopping",38.76295,-9.11424,"Lisboa","Lisboa","Rua Cidade Bolama","1800-79 Lisboa","http://maps.google.com/maps?z=12&t=m&q=Pingo+Doce+-+Rua+Cidade+Bolama+Lisboa",FALSE,"938875843",NA,NA,NA
739,"Oliveira de Azemeis - Farrapa",40.84559,-8.47656,"Oliveira de Azeméis","Aveiro","Rua Bento Landureza, Lugar Da Farrapa","3270-261 Oliveira de Azeméis","http://maps.google.com/maps?z=12&t=m&q=Pingo+Doce+-+Rua+Bento+Landureza%2C+Lugar+Da+Farrapa+Oliveira+de+Azem%C3%A9is",FALSE,"938875739",NA,NA,NA
321,"Oliveira de Azeméis - Shopping Rainha",40.8384,-8.47976,"Oliveira de Azeméis","Aveiro","Largo Luís de Camões - Centro Comercial Rainha","3720-232 Oliveira de Azeméis","http://maps.google.com/maps?z=12&t=m&q=Pingo+Doce+-+Largo+Lu%C3%ADs+de+Cam%C3%B5es+-+Centro+Comercial+Rainha+Oliveira+de+Azem%C3%A9is",FALSE,"938875321",NA,NA,NA
351,"Oliveira de Frades",40.71861111,-8.176944444,"Oliveira de Frades","Viseu","Rua Senhora dos Milagres","3680-77 Oliveira de Frades","http://maps.google.com/maps?z=12&t=m&q=Pingo+Doce+-+Rua+Senhora+dos+Milagres+Oliveira+de+Frades",FALSE,"938875351",NA,NA,NA
610,"Oliveira do Bairro",40.5078951535396,-8.48600399487623,"Oliveira do Bairro","Aveiro","E.N. 235, Rua de S. Sebastião","3770-221 Oliveira do Bairro","http://maps.google.com/maps?z=12&t=m&q=Pingo+Doce+-+E.N.+235%2C+Rua+de+S.+Sebasti%C3%A3o+Oliveira+do+Bairro",FALSE,"938875610",1.625,NA,1.578
615,"Oliveira do Douro",41.12763,-8.580818,"Vila Nova de Gaia","Porto","Rua Dª Mª Costa Basto","4430-381 Vila Nova de Gaia","http://maps.google.com/maps?z=12&t=m&q=Pingo+Doce+-+Rua+D%C2%AA+M%C2%AA+Costa+Basto+Vila+Nova+de+Gaia",FALSE,"937876615",NA,NA,NA
497,"Oliveira do Hospital",40.3603453222493,-7.8547739982605,"Oliveira do Hospital","Coimbra","Av. Dr. António Dias","3400-160 Oliveira do Hospital","http://maps.google.com/maps?z=12&t=m&q=Pingo+Doce+-+Av.+Dr.+Ant%C3%B3nio+Dias+Oliveira+do+Hospital",FALSE,"938875620",NA,NA,NA
815,"Ourique",37.65416667,-8.234722222,"Ourique","Beja","E.N. 123, Loteamento Rosal Sul","7670-364 Ourique","http://maps.google.com/maps?z=12&t=m&q=Pingo+Doce+-+E.N.+123%2C+Loteamento+Rosal+Sul+Ourique",FALSE,"938875815",NA,NA,NA
342,"Ovar - Aquilino Ribeiro",40.86047,-8.62337,"Ovar","Aveiro","Rua Aquilino Ribeiro","3880-151 Ovar","http://maps.google.com/maps?z=12&t=m&q=Pingo+Doce+-+Rua+Aquilino+Ribeiro+Ovar",FALSE,"938875342",NA,NA,NA
736,"Ovar - Lavouras",40.865972,-8.610395,"Ovar","Aveiro","Rua Monsenhor Miguel de Oliveira","3880-796 Ovar","http://maps.google.com/maps?z=12&t=m&q=Pingo+Doce+-+Rua+Monsenhor+Miguel+de+Oliveira+Ovar",FALSE,"938875736",NA,NA,NA
839,"Paço de Arcos",38.6958,-9.29278,"Oeiras","Lisboa","Rua Bom Jeus Navegantes","2780-161 Oeiras","http://maps.google.com/maps?z=12&t=m&q=Pingo+Doce+-+Rua+Bom+Jeus+Navegantes+Oeiras",FALSE,"938875839",NA,NA,NA
733,"Paços de Ferreira",41.276508,-8.38347,"Paços de Ferreira","Porto","Rua Dr. Queirós Ribeiro, E.N. 207 - Lugar de Ponte Nova","4590-590 Paços de Ferreira","http://maps.google.com/maps?z=12&t=m&q=Pingo+Doce+-+Rua+Dr.+Queir%C3%B3s+Ribeiro%2C+E.N.+207+-+Lugar+de+Ponte+Nova+Pa%C3%A7os+de+Ferreira",FALSE,"938875733",NA,NA,NA
427,"Paivas",38.619157,-9.113339,"Seixal","Setúbal","Rua D. Manuel I, Torre 1 Marco Severino","2845-368 Seixal","http://maps.google.com/maps?z=12&t=m&q=Pingo+Doce+-+Rua+D.+Manuel+I%2C+Torre+1+Marco+Severino+Seixal",FALSE,"938875427",NA,NA,NA
646,"Palmela",38.5790388,-8.8994931,"Palmela","Setúbal","Rua de São Julião - Retail Park Palmela","2950-780 Palmela","http://maps.google.com/maps?z=12&t=m&q=Pingo+Doce+-+Rua+de+S%C3%A3o+Juli%C3%A3o+-+Retail+Park+Palmela+Palmela",FALSE,"938875049",NA,NA,NA
804,"Parede - Avenida da República",38.6899,-9.35557,"Cascais","Lisboa","Av. República","2775-272 Cascais","http://maps.google.com/maps?z=12&t=m&q=Pingo+Doce+-+Av.+Rep%C3%BAblica+Cascais",FALSE,"938875804",NA,NA,NA
708,"Parede - Melvin Jones",38.69545,-9.35057,"Cascais","Lisboa","Rua Melvin Jones","2775-717 Cascais","http://maps.google.com/maps?z=12&t=m&q=Pingo+Doce+-+Rua+Melvin+Jones+Cascais",FALSE,"938875708",NA,NA,NA
392,"Parque das Nações - Norte",38.79131,-9.0993,"Lisboa","Lisboa","Empreendimento Verde Parque","1990-514 Lisboa","http://maps.google.com/maps?z=12&t=m&q=Pingo+Doce+-+Empreendimento+Verde+Parque+Lisboa",FALSE,"938040078",NA,NA,NA
400,"Parque das Nações Sul",38.7557231446883,-9.09938335418701,"Lisboa","Lisboa","Av.Fernando Pessoa","1998-14 Lisboa","http://maps.google.com/maps?z=12&t=m&q=Pingo+Doce+-+Av.Fernando+Pessoa+Lisboa",FALSE,"938040364",NA,NA,NA
480,"Parque Europa",38.76674,-9.15347,"Lisboa","Lisboa","Av. Maria Helena Vieira Da Silva - Parque Europa","1750-336 Lisboa","http://maps.google.com/maps?z=12&t=m&q=Pingo+Doce+-+Av.+Maria+Helena+Vieira+Da+Silva+-+Parque+Europa+Lisboa",FALSE,"938875480",NA,NA,NA
634,"Passos Manuel",41.146697,-8.604663,"Porto","Porto","Rua Passos Manuel","4000-385 Porto","http://maps.google.com/maps?z=12&t=m&q=Pingo+Doce+-+Rua+Passos+Manuel+Porto",FALSE,"938875634",NA,NA,NA
338,"Pasteleira",41.1481,-8.6583,"Porto","Porto","Rua Paulo Gama","4150-589 Porto","http://maps.google.com/maps?z=12&t=m&q=Pingo+Doce+-+Rua+Paulo+Gama+Porto",FALSE,"938875338",NA,NA,NA
4017,"PD&amp;Go Aveiro - Forca",40.6374324,-8.6397786,"Aveiro","Aveiro","Avenida Dr. Sá Carneiro","3810-365 Aveiro","http://maps.google.com/maps?z=12&t=m&q=Pingo+Doce+-+Avenida+Dr.+S%C3%A1+Carneiro+Aveiro",FALSE,"234371202",NA,NA,NA
4013,"PD&amp;Go Belverde",38.610049,-9.123005,"Amora","Setúbal","Posto BP Avenida de Belverde","2845-483 Amora","http://maps.google.com/maps?z=12&t=m&q=Pingo+Doce+-+Posto+BP+Avenida+de+Belverde+Amora",FALSE,"212240515",NA,NA,NA
4015,"PD&amp;Go Braga Dume",41.5542955,-8.4308692,"Braga","Braga","Rua de São Martinho de Dume","4700-442 Braga","http://maps.google.com/maps?z=12&t=m&q=Pingo+Doce+-+Rua+de+S%C3%A3o+Martinho+de+Dume+Braga",FALSE,"253617434",NA,NA,NA
4080,"PD&amp;Go Cascais Refer",38.7007793,-9.4186007,"Cascais","Lisboa","Estação CP Cascais, Largo da estação","2750-340 Cascais","http://maps.google.com/maps?z=12&t=m&q=Pingo+Doce+-+Esta%C3%A7%C3%A3o+CP+Cascais%2C+Largo+da+esta%C3%A7%C3%A3o+Cascais",FALSE,"938875209",NA,NA,NA
4003,"PD&amp;Go Corroios",38.6392559,-9.1506265,"Corroios","Setúbal","E.N. 10, Km 5,9","2855-84 Corroios","http://maps.google.com/maps?z=12&t=m&q=Pingo+Doce+-+E.N.+10%2C+Km+5%2C9+Corroios",FALSE,"212552875",NA,NA,NA
4010,"PD&amp;Go Ericeira",38.9824378,-9.4177378,"Ericeira","Lisboa","N247 E.N. 267, Mil Regos","2655-319 Ericeira","http://maps.google.com/maps?z=12&t=m&q=Pingo+Doce+-+N247+E.N.+267%2C+Mil+Regos+Ericeira",FALSE,"261860130",NA,NA,NA
4004,"PD&amp;Go Estoril",38.6995562,-9.3805699,"S. Pedro do Estoril","Lisboa","Rua Egas Moniz - E.N. 6, Km 14","2775-84 S. Pedro do Estoril","http://maps.google.com/maps?z=12&t=m&q=Pingo+Doce+-+Rua+Egas+Moniz+-+E.N.+6%2C+Km+14+S.+Pedro+do+Estoril",FALSE,"214647808",NA,NA,NA
4000,"PD&amp;GO Estrada da Luz",38.7591447,-9.1805942,"Lisboa","Lisboa","Estrada da Luz","1600-165 Lisboa","http://maps.google.com/maps?z=12&t=m&q=Pingo+Doce+-+Estrada+da+Luz+Lisboa",FALSE,"217169350",NA,NA,NA
4018,"PD&amp;Go Feijó - Almada",38.6585466,-9.1642422,"Almada","Lisboa","Avenida Arsenal do Alfeite","2810-27 Almada","http://maps.google.com/maps?z=12&t=m&q=Pingo+Doce+-+Avenida+Arsenal+do+Alfeite+Almada",FALSE,"212583567",NA,NA,NA
4100,"PD&amp;Go Foco",41.163891,-8.6473591,"Ramalde","Porto","Rua Afonso Lopes Vieira","4100-20 Ramalde","http://maps.google.com/maps?z=12&t=m&q=Pingo+Doce+-+Rua+Afonso+Lopes+Vieira+Ramalde",FALSE,"938875227",NA,NA,NA
4007,"PD&amp;Go Loures",38.8387978,-9.1654763,"Loures","Lisboa","N115 Olival da Quinta Nova","2600-581 Loures","http://maps.google.com/maps?z=12&t=m&q=Pingo+Doce+-+N115+Olival+da+Quinta+Nova+Loures",FALSE,"219824079",NA,NA,NA
4012,"PD&amp;Go Massamá",38.7520717,-9.2831449,"Massamá","Lisboa","Largo Dom Afonso Henriques","2745-704 Massamá","http://maps.google.com/maps?z=12&t=m&q=Pingo+Doce+-+Largo+Dom+Afonso+Henriques+Massam%C3%A1",FALSE,"214300574",NA,NA,NA
4009,"PD&amp;Go Moita",38.6492734,-8.9984412,"Moita","Setúbal","N11 Largo da Estação","2860-403 Moita","http://maps.google.com/maps?z=12&t=m&q=Pingo+Doce+-+N11+Largo+da+Esta%C3%A7%C3%A3o+Moita",FALSE,"212801312",NA,NA,NA
4006,"PD&amp;Go Moscavide",38.6937953,-9.0962094,"Moscavide","Lisboa","Avenida da Boa Esperança, Praça José Queirós","1885-81 Moscavide","http://maps.google.com/maps?z=12&t=m&q=Pingo+Doce+-+Avenida+da+Boa+Esperan%C3%A7a%2C+Pra%C3%A7a+Jos%C3%A9+Queir%C3%B3s+Moscavide",FALSE,"218531997",NA,NA,NA
4090,"PD&amp;Go Nova",38.678231,-9.325039,"Carcavelos","Lisboa","Rua Holanda","2775-405 Carcavelos","http://maps.google.com/maps?z=12&t=m&q=Pingo+Doce+-+Rua+Holanda+Carcavelos",FALSE,"938875296",NA,NA,NA
4005,"PD&amp;Go Paço Arcos",38.6937953,-9.2972364,"Paço de Arcos","Lisboa","Rua Costa Pinto, Av. Eng. Bonneville Franco","2770-55 Paço de Arcos","http://maps.google.com/maps?z=12&t=m&q=Pingo+Doce+-+Rua+Costa+Pinto%2C+Av.+Eng.+Bonneville+Franco+Pa%C3%A7o+de+Arcos",FALSE,"214423730",NA,NA,NA
4011,"PD&amp;Go Padre Cruz",38.7625437,-9.1631275,"Lisboa","Lisboa","Avenida Padre Cruz","1600-559 Lisboa","http://maps.google.com/maps?z=12&t=m&q=Pingo+Doce+-+Avenida+Padre+Cruz+Lisboa",FALSE,"217595964",NA,NA,NA
4014,"PD&amp;Go Paredes",41.2094774,-8.3286339,"Paredes","Porto","Rua Dr. José de Magalhães","4580-133 Paredes","http://maps.google.com/maps?z=12&t=m&q=Pingo+Doce+-+Rua+Dr.+Jos%C3%A9+de+Magalh%C3%A3es+Paredes",FALSE,"255785189",NA,NA,NA
4002,"PD&amp;Go Parque das Nações",38.7751978,-9.0962074,"Moscavide","Lisboa","Avenida da Boa Esperança","1885-81 Moscavide","http://maps.google.com/maps?z=12&t=m&q=Pingo+Doce+-+Avenida+da+Boa+Esperan%C3%A7a+Moscavide",FALSE,"927989816",NA,NA,NA
4008,"PD&amp;Go Pinhal Novo",38.6367639,-8.914467,"Pinhal Novo","Setúbal","R. do Monte Novo","2955-156 Pinhal Novo","http://maps.google.com/maps?z=12&t=m&q=Pingo+Doce+-+R.+do+Monte+Novo+Pinhal+Novo",FALSE,"212382549",NA,NA,NA
4001,"PD&amp;GO Restelo",38.7114146,-9.2145071,"Lisboa","Lisboa","Avenida das Descobertas","1400-195 Lisboa","http://maps.google.com/maps?z=12&t=m&q=Pingo+Doce+-+Avenida+das+Descobertas+Lisboa",FALSE,"969706946",NA,NA,NA
4016,"PD&amp;Go Salgueiros",41.1734249,-8.6163343,"Porto","Porto","Rua Particular de Monsanto","4250-326 Porto","http://maps.google.com/maps?z=12&t=m&q=Pingo+Doce+-+Rua+Particular+de+Monsanto+Porto",FALSE,"228313112",NA,NA,NA
4021,"PD&amp;Go São João da Talha",38.8229974,-9.088288,"São João da Talha","Lisboa","N10 E.N. 10, Km 138.4","2695-715 São João da Talha","http://maps.google.com/maps?z=12&t=m&q=Pingo+Doce+-+N10+E.N.+10%2C+Km+138.4+S%C3%A3o+Jo%C3%A3o+da+Talha",FALSE,"219550481",NA,NA,NA
4019,"PD&amp;Go São Roque da Lameira Porto",41.1584687,-8.583597,"Porto","Porto","Rua São Roque da Lameira","4350-307 Porto","http://maps.google.com/maps?z=12&t=m&q=Pingo+Doce+-+Rua+S%C3%A3o+Roque+da+Lameira+Porto",FALSE,"220990865 ",NA,NA,NA
4022,"PD&amp;Go Sintra Abrunheira",38.7713561815782,-9.34605922089756,"Sintra Abrunheira",NA,"Rua Rosa Maria Lobato Faria","2710-98 Sintra Abrunheira","http://maps.google.com/maps?z=12&t=m&q=Pingo+Doce+-+Rua+Rosa+Maria+Lobato+Faria+Sintra+Abrunheira",FALSE,"210604772",NA,NA,NA
664,"Penafiel - Guilhufe",41.1931682,-8.3079607,"Penafiel","Porto","Quinta Da Lagarteira - Guilhufe","4560-144 Penafiel","http://maps.google.com/maps?z=12&t=m&q=Pingo+Doce+-+Quinta+Da+Lagarteira+-+Guilhufe+Penafiel",FALSE,"255729010",1.625,NA,1.578
464,"Peniche",39.3593,-9.37448,"Peniche","Leiria","Praça Professor António Alves Seara","2520-621 Peniche","http://maps.google.com/maps?z=12&t=m&q=Pingo+Doce+-+Pra%C3%A7a+Professor+Ant%C3%B3nio+Alves+Seara+Peniche",FALSE,"938875464",NA,NA,NA
612,"Perosinho",41.063304,-8.597612,"Vila Nova de Gaia","Porto","Rua Dr. Carlos Costa","4415-28 Vila Nova de Gaia","http://maps.google.com/maps?z=12&t=m&q=Pingo+Doce+-+Rua+Dr.+Carlos+Costa+Vila+Nova+de+Gaia",FALSE,"938 875 884",NA,NA,NA
4020,"Pingo Doce &amp; Go Seixal - Fogueteiro",38.6079145,-9.0992886,"Seixal","Setúbal","Interface do Fogueteiro","2840-432 Seixal","http://maps.google.com/maps?z=12&t=m&q=Pingo+Doce+-+Interface+do+Fogueteiro+Seixal",FALSE,"218231004",NA,NA,NA
420,"Pinhal Novo",38.634432,-8.914265,"Palmela","Setúbal","C.C. Mochos - Rua Ferreira de Castro","2955-185 Palmela","http://maps.google.com/maps?z=12&t=m&q=Pingo+Doce+-+C.C.+Mochos+-+Rua+Ferreira+de+Castro+Palmela",FALSE,"938875420",NA,NA,NA
775,"Pombal - Barco",39.916036,-8.619145,"Pombal","Leiria","E.N. 237, Rua De Ansião - Barco","3100-474 Pombal","http://maps.google.com/maps?z=12&t=m&q=Pingo+Doce+-+E.N.+237%2C+Rua+De+Ansi%C3%A3o+-+Barco+Pombal",FALSE,"938875775",NA,NA,NA
301,"Pombal - Shopping",39.9168,-8.62681,"Pombal","Leiria","Pombal Shopping - Rua Stª. Luzia","3100-483 Pombal","http://maps.google.com/maps?z=12&t=m&q=Pingo+Doce+-+Pombal+Shopping+-+Rua+St%C2%AA.+Luzia++Pombal",FALSE,"938875301",NA,NA,NA
688,"Ponte de Sôr - Zona Industrial",39.26874,-8.01258,"Ponte de Sor","Portalegre","Zona Industrial - Barreiras","7400-401 Ponte de Sor","http://maps.google.com/maps?z=12&t=m&q=Pingo+Doce+-+Zona+Industrial+-+Barreiras+Ponte+de+Sor",FALSE,"938879688",1.625,NA,1.578
404,"Portalegre",39.299322,-7.428758,"Portalegre","Portalegre","C.C. Fontedeira - Av. M.F.A.","7300-72 Portalegre","http://maps.google.com/maps?z=12&t=m&q=Pingo+Doce+-+C.C.+Fontedeira+-+Av.+M.F.A.+Portalegre",FALSE,"938875404",NA,NA,NA
479,"Portela da Azóia",38.83804,-9.0914,"Loures","Lisboa","Rua D. Pedro V","2695-247 Loures","http://maps.google.com/maps?z=12&t=m&q=Pingo+Doce+-+Rua+D.+Pedro+V+++Loures",FALSE,"938875479",NA,NA,NA
750,"Portimão - Craveiros",37.14656,-8.54963,"Portimão","Faro","Lugar Dos Craveiros, Av. V 6","8500-420 Portimão","http://maps.google.com/maps?z=12&t=m&q=Pingo+Doce+-+Lugar+Dos+Craveiros%2C+Av.+V+6+Portim%C3%A3o",FALSE,"938875750",NA,NA,NA
398,"Portimão - Recomar",37.134422,-8.537423,"Portimão","Faro","Rua D. Carlos I","8501-858 Portimão","http://maps.google.com/maps?z=12&t=m&q=Pingo+Doce+-+Rua+D.+Carlos+I+Portim%C3%A3o",FALSE,"938875707",NA,NA,NA
857,"Portimão - Sá Carneiro",37.1417,-8.54267,"Portimão","Faro","Av. Dr. Francisco Sá Carneiro","8500-506 Portimão","http://maps.google.com/maps?z=12&t=m&q=Pingo+Doce+-+Av.+Dr.+Francisco+S%C3%A1+Carneiro+Portim%C3%A3o",FALSE,"938875857",NA,NA,NA
715,"Porto Alto",38.92101,-8.88043,"Benavente","Santarém","Rua João Folheiro - Porto Alto","2135-133 Benavente","http://maps.google.com/maps?z=12&t=m&q=Pingo+Doce+-+Rua+Jo%C3%A3o+Folheiro+-+Porto+Alto+Benavente",FALSE,"938875715",NA,NA,NA
697,"Porto de Mós",39.62403,-8.85624,"Porto de Mós","Leiria","Ic 2 - Km 107,4 Chão Da Feira","2480-55 Porto de Mós","http://maps.google.com/maps?z=12&t=m&q=Pingo+Doce+-+Ic+2+-+Km+107%2C4+Ch%C3%A3o+Da+Feira+Porto+de+M%C3%B3s",FALSE,"938875697",1.625,NA,1.578
892,"Porto Rotunda AEP",41.1782666559551,-8.6544076,"Porto","Porto","Estrada da Circunvalação","4100-178 Porto","http://maps.google.com/maps?z=12&t=m&q=Pingo+Doce+-+Estrada+da+Circunvala%C3%A7%C3%A3o+Porto",FALSE,"938873103",NA,NA,NA
17,"Porto Santo Praia Dourada",33.0603604,-16.332169,"Porto Santo","Madeira","Rua Dr. José Diamantino Lima","9400-168 Porto Santo","http://maps.google.com/maps?z=12&t=m&q=Pingo+Doce+-+Rua+Dr.+Jos%C3%A9+Diamantino+Lima+Porto+Santo",FALSE,"291980080",NA,NA,NA
731,"Póvoa de Lanhoso",41.571741,-8.261815,"Póvoa de Lanhoso","Braga","Lugar De Pontes Pereiros","4830-508 Póvoa de Lanhoso","http://maps.google.com/maps?z=12&t=m&q=Pingo+Doce+-+Lugar+De+Pontes+Pereiros+P%C3%B3voa+de+Lanhoso",FALSE,"938875231",NA,NA,NA
460,"Póvoa de Santa Iria",38.8524755485668,-9.07394930720329,"Vila Franca de Xira","Lisboa","Rua António Gonçalves Correia - Urbanização Solar Das Marinhas","2625-266 Vila Franca de Xira","http://maps.google.com/maps?z=12&t=m&q=Pingo+Doce+-+Rua+Ant%C3%B3nio+Gon%C3%A7alves+Correia+-+Urbaniza%C3%A7%C3%A3o+Solar+Das+Marinhas+Vila+Franca+de+Xira",FALSE,"938875070",NA,NA,NA
890,"Póvoa de Santa Iria - Gare",38.8600060795765,-9.06418521547122,"Póvoa de Santa Iria","Lisboa","Rua da República","2625-170 Póvoa de Santa Iria","http://maps.google.com/maps?z=12&t=m&q=Pingo+Doce+-+Rua+da+Rep%C3%BAblica+P%C3%B3voa+de+Santa+Iria",FALSE,"938875488",NA,NA,NA
689,"Póvoa de Santo Adrião",38.7951,-9.16030407,"Odivelas","Lisboa","Rua Júlio Borba","2620-101 Odivelas","http://maps.google.com/maps?z=12&t=m&q=Pingo+Doce+-+Rua+J%C3%BAlio+Borba+Odivelas",FALSE,"938875689",NA,NA,NA
654,"Póvoa de Varzim - Hiper",41.37767,-8.73921,"Póvoa de Varzim","Porto","Lugar Da Gandara - Argivai","4490-228 Póvoa de Varzim","http://maps.google.com/maps?z=12&t=m&q=Pingo+Doce+-+Lugar+Da+Gandara+-+Argivai+P%C3%B3voa+de+Varzim",FALSE,"939875654",NA,NA,NA
320,"Póvoa Varzim - Marquês de Pombal",41.3819,-8.7621,"Póvoa de Varzim","Porto","Pcª. Marquês Pombal","4490-442 Póvoa de Varzim","http://maps.google.com/maps?z=12&t=m&q=Pingo+Doce+-+Pc%C2%AA.+Marqu%C3%AAs+Pombal+P%C3%B3voa+de+Varzim",FALSE,"938875320",NA,NA,NA
315,"Praça da República",41.1537,-8.6134,"Porto","Porto","Praça da República","4050-496 Porto","http://maps.google.com/maps?z=12&t=m&q=Pingo+Doce+-+Pra%C3%A7a+da+Rep%C3%BAblica+Porto",FALSE,"938875315",NA,NA,NA
450,"Pragal",38.6661,-9.18059,"Almada","Setúbal","Rua José Cardoso Pires - Estação Do Pragal","2805-337 Almada","http://maps.google.com/maps?z=12&t=m&q=Pingo+Doce+-+Rua+Jos%C3%A9+Cardoso+Pires+-+Esta%C3%A7%C3%A3o+Do+Pragal+Almada",FALSE,"938875450",NA,NA,NA
489,"Prelada",41.172355,-8.639481,"Porto","Porto","Rua Central de Francos","4250-124 Porto","http://maps.google.com/maps?z=12&t=m&q=Pingo+Doce+-+Rua+Central+de+Francos+Porto",FALSE,"938040744",NA,NA,NA
466,"Prior Velho - Terraços da Ponte",38.79802,-9.11298,"Loures","Lisboa","Urbanização Terraços Da Ponte","2685-119 Loures","http://maps.google.com/maps?z=12&t=m&q=Pingo+Doce+-+Urbaniza%C3%A7%C3%A3o+Terra%C3%A7os+Da+Ponte+Loures",FALSE,"938875466",NA,NA,NA
365,"Quarteira - Morgadinho",37.07735,-8.09447,"Loulé","Faro","Sitio Do Semino","8125-303 Loulé","http://maps.google.com/maps?z=12&t=m&q=Pingo+Doce+-+Sitio+Do+Semino+Loul%C3%A9",FALSE,"938047430",NA,NA,NA
475,"Queijas",38.71913,-9.26024,"Oeiras","Lisboa","Rua António Feliciano Castilho","2795-780 Oeiras","http://maps.google.com/maps?z=12&t=m&q=Pingo+Doce+-+Rua+Ant%C3%B3nio+Feliciano+Castilho+Oeiras",FALSE,"938875475",NA,NA,NA
425,"Queluz - António Enes",38.75724,-9.25538,"Sintra","Lisboa","Rua António Enes","2745-67 Sintra","http://maps.google.com/maps?z=12&t=m&q=Pingo+Doce+-+Rua+Ant%C3%B3nio+Enes+Sintra",FALSE,"938875425",NA,NA,NA
419,"Queluz - Monte Abraão",38.7609,-9.26029,"Sintra","Lisboa","Av. Gen. Humberto Delgado","2745-281 Sintra","http://maps.google.com/maps?z=12&t=m&q=Pingo+Doce+-+Av.+Gen.+Humberto+Delgado+Sintra",FALSE,"938875419",NA,NA,NA
752,"Quinta do Conde - Cova dos Vidros",38.56499,-9.03794,"Sesimbra","Setúbal","Urbanização Da Cova Dos Vidros","2975-628 Sesimbra","http://maps.google.com/maps?z=12&t=m&q=Pingo+Doce+-+Urbaniza%C3%A7%C3%A3o+Da+Cova+Dos+Vidros+Sesimbra",FALSE,"938875752",NA,NA,NA
695,"Quinta do Conde - Estrada Nacional",38.575,-9.0375,"Sesimbra","Setúbal","E.N. 10 Km 19,5","2975-403 Sesimbra","http://maps.google.com/maps?z=12&t=m&q=Pingo+Doce+-+E.N.+10+Km+19%2C5+Sesimbra",FALSE,"939990340",1.605,1.758,1.536
617,"Quinta do Lago",37.060956,-8.029611,"Loulé","Faro","Centro Comercial Buganvilla","8136-106 Loulé","http://maps.google.com/maps?z=12&t=m&q=Pingo+Doce+-+Centro+Comercial+Buganvilla+Loul%C3%A9",FALSE,"938875179",NA,NA,NA
876,"Ramada Bons Dias",38.8140065,-9.188327,"Odivelas","Lisboa","Avenida Augusto Hilário","2620-184 Odivelas","http://maps.google.com/maps?z=12&t=m&q=Pingo+Doce+-+Avenida+Augusto+Hil%C3%A1rio+Odivelas",FALSE,"938875255",NA,NA,NA
337,"Ramalde - São João de Brito",41.16716,-8.64957,"Porto","Porto","Rua São João De Brito C/ Rua Das Andressas","4100-453 Porto","http://maps.google.com/maps?z=12&t=m&q=Pingo+Doce+-+Rua+S%C3%A3o+Jo%C3%A3o+De+Brito+C%2F+Rua+Das+Andressas+Porto",FALSE,"938875337",NA,NA,NA
476,"Reboleira",38.7503,-9.2293,"Amadora","Lisboa","Av. D. José I","2720-176 Amadora","http://maps.google.com/maps?z=12&t=m&q=Pingo+Doce+-+Av.+D.+Jos%C3%A9+I+Amadora",FALSE,"938875476",NA,NA,NA
379,"Régua",41.1686,-7.8029,"Peso da Régua","Vila Real","Bairro das Alagoas - Qtª. Das Forcas, Godim","5050-63 Peso da Régua","http://maps.google.com/maps?z=12&t=m&q=Pingo+Doce+-+Bairro+das+Alagoas+-+Qt%C2%AA.+Das+Forcas%2C+Godim+Peso+da+R%C3%A9gua",FALSE,"938875379",1.625,NA,1.578
767,"Reguengos de Monsaraz",38.426017,-7.546341,"Reguengos de Monsaraz","Évora","Avenida do Alentejo - Lugar de Carapetal","7200-480 Reguengos de Monsaraz","http://maps.google.com/maps?z=12&t=m&q=Pingo+Doce+-+Avenida+do+Alentejo+-+Lugar+de+Carapetal+Reguengos+de+Monsaraz",FALSE,"938875767",NA,NA,NA
525,"Resende",41.103647,-7.9581799,"Resende","Viseu","Rua da Escola Preparatória","4660-44 Resende","http://maps.google.com/maps?z=12&t=m&q=Pingo+Doce+-+Rua+da+Escola+Preparat%C3%B3ria+Resende",FALSE,"938043082",NA,NA,NA
438,"Restelo",38.695504,-9.215327,"Lisboa","Lisboa","Av. Torre Belém","1400-342 Lisboa","http://maps.google.com/maps?z=12&t=m&q=Pingo+Doce+-+Av.+Torre+Bel%C3%A9m+Lisboa",FALSE,"938875438",NA,NA,NA
537,"Riba de Ave",41.3954563,-8.3909479,"Riba de Ave","Lisboa","Cerrado da Casa - Casais","4765-213 Riba de Ave","http://maps.google.com/maps?z=12&t=m&q=Pingo+Doce+-+Cerrado+da+Casa+-+Casais+Riba+de+Ave",FALSE,"938878650",NA,NA,NA
430,"Rinchoa",38.78732681,-9.317335129,"Rio de Mouro","Lisboa","C.C. Fitares - Rua Parque - Urbanização Fitares","2635-593 Rio de Mouro","http://maps.google.com/maps?z=12&t=m&q=Pingo+Doce+-+C.C.+Fitares+-+Rua+Parque+-+Urbaniza%C3%A7%C3%A3o+Fitares+Rio+de+Mouro",FALSE,"938875430",NA,NA,NA
432,"Rio Maior - Espadanal",39.3404,-8.92981,"Rio Maior","Santarém","Av. Dr. Mário Soares - Lugar do Espadanal","2040-413 Rio Maior","http://maps.google.com/maps?z=12&t=m&q=Pingo+Doce+-+Av.+Dr.+M%C3%A1rio+Soares+-+Lugar+do+Espadanal+Rio+Maior",FALSE,"938875432",NA,NA,NA
720,"Rio Maior - Taipas",39.332173,-8.938054,"Rio Maior","Santarém","Rua Das Taipas","2040-339 Rio Maior","http://maps.google.com/maps?z=12&t=m&q=Pingo+Doce+-+Rua+Das+Taipas+Rio+Maior",FALSE,"938875520",1.625,NA,1.578
665,"Rio Tinto - Infante D. Henrique",41.171548,-8.547723,"Gondomar","Porto","Av. Infante D. Henrique","4435-286 Gondomar","http://maps.google.com/maps?z=12&t=m&q=Pingo+Doce+-+Av.+Infante+D.+Henrique+Gondomar",FALSE,"938043669",NA,NA,NA
478,"Rua João Saraiva",38.757055,-9.140821,"Lisboa","Lisboa","Rua João Saraiva","1700-248 Lisboa","http://maps.google.com/maps?z=12&t=m&q=Pingo+Doce+-+Rua+Jo%C3%A3o+Saraiva+Lisboa",FALSE,"938875478",NA,NA,NA
613,"S. Félix da Marinha",41.027304,-8.63623,"Vila Nova de Gaia","Porto","Rua de Brito, Estrada Nacional 109","4410-205 Vila Nova de Gaia","http://maps.google.com/maps?z=12&t=m&q=Pingo+Doce+-+Rua+de+Brito%2C+Estrada+Nacional+109+Vila+Nova+de+Gaia",FALSE,"938875619",NA,NA,NA
322,"Sá da Bandeira",41.1495,-8.6074,"Porto","Porto","Rua Sá Bandeira","4000-270 Porto","http://maps.google.com/maps?z=12&t=m&q=Pingo+Doce+-+Rua+S%C3%A1+Bandeira+Porto",FALSE,"938875322",NA,NA,NA
445,"Sacavém - Real Parque",38.7932,-9.10363,"Loures","Lisboa","Urbanização Real Forte - Rua Álvaro Pedro Gomes","2685-50 Loures","http://maps.google.com/maps?z=12&t=m&q=Pingo+Doce+-+Urbaniza%C3%A7%C3%A3o+Real+Forte+-+Rua+%C3%81lvaro+Pedro+Gomes+Loures",FALSE,"938875445",NA,NA,NA
882,"Salgueiros Paranhos",41.1680308,-8.5975355,"Salgueiros , Paranho","Porto","Rua de Aval de Baixo","4200-99 Salgueiros , Paranho","http://maps.google.com/maps?z=12&t=m&q=Pingo+Doce+-+Rua+de+Aval+de+Baixo++Salgueiros+%2C+Paranho",FALSE,"938 875 140",NA,NA,NA
463,"Samora Correia",38.93,-8.86,"Benavente","Santarém","Rua Ferreira de Castro - Urbanização Arneiros Corvos","2135-312 Benavente","http://maps.google.com/maps?z=12&t=m&q=Pingo+Doce+-+Rua+Ferreira+de+Castro+-+Urbaniza%C3%A7%C3%A3o+Arneiros+Corvos+Benavente",FALSE,"938875463",NA,NA,NA
390,"Santa Apolónia",38.71423,-9.12198,"Lisboa","Lisboa","Rua De Santa Apolónia - Estação","1100-486 Lisboa","http://maps.google.com/maps?z=12&t=m&q=Pingo+Doce+-+Rua+De+Santa+Apol%C3%B3nia+-+Esta%C3%A7%C3%A3o+Lisboa",FALSE,"938875599",NA,NA,NA
324,"Santa Comba Dão",40.399325,-8.132774,"Santa Comba Dão","Viseu","Avª Drº Sá Carneiro","3440-324 Santa Comba Dão","http://maps.google.com/maps?z=12&t=m&q=Pingo+Doce+-+Av%C2%AA+Dr%C2%BA+S%C3%A1+Carneiro+Santa+Comba+D%C3%A3o",FALSE,"938875324",NA,NA,NA
335,"Santa Luzia",41.1763,-8.6262,"Porto","Porto","Rua Santa Luzia","4250-417 Porto","http://maps.google.com/maps?z=12&t=m&q=Pingo+Doce+-+Rua+Santa+Luzia+Porto",FALSE,"938875335",NA,NA,NA
2006,"Santa Maria - Açores",36.9535353,-25.1427264,"Santa Maria","Açores","Rua Dr. Luís Bettencourt","9580- Santa Maria","http://maps.google.com/maps?z=12&t=m&q=Pingo+Doce+-+Rua+Dr.+Lu%C3%ADs+Bettencourt+Santa+Maria",FALSE,"296 820 972",NA,NA,NA
657,"Santa Maria da Feira - Hiper",40.921406,-8.565644,"Santa Maria da Feira","Aveiro","Lugar De Vila Boa","4520-195 Santa Maria da Feira","http://maps.google.com/maps?z=12&t=m&q=Pingo+Doce+-+Lugar+De+Vila+Boa+Santa+Maria+da+Feira",FALSE,"939990220",NA,NA,NA
690,"Santarém - Lugar de S. Domingos",39.238670349,-8.703638077,"Santarém","Santarém","E.N. 365, Lugar S. Domingos","2005-542 Santarém","http://maps.google.com/maps?z=12&t=m&q=Pingo+Doce+-+E.N.+365%2C+Lugar+S.+Domingos+Santar%C3%A9m",FALSE,"938875690",1.625,NA,1.578
469,"Santarém - Shopping W",39.23354,-8.6852,"Santarém","Santarém","Centro Comercial W - Rua Pedro Santarém","2000-223 Santarém","http://maps.google.com/maps?z=12&t=m&q=Pingo+Doce+-+Centro+Comercial+W+-+Rua+Pedro+Santar%C3%A9m+Santar%C3%A9m",FALSE,"938875011",NA,NA,NA
710,"Santarém - Sra. da Guia",39.24813,-8.69316,"Santarém","Santarém","Rua da Escola dos Regentes Agrícolas (EN 3), Urbanização Senhora da Guia","2005-474 Santarém","http://maps.google.com/maps?z=12&t=m&q=Pingo+Doce+-+Rua+da+Escola+dos+Regentes+Agr%C3%ADcolas+%28EN+3%29%2C+Urbaniza%C3%A7%C3%A3o+Senhora+da+Guia+Santar%C3%A9m",FALSE,"938875710",NA,NA,NA
531,"Santo André",38.0583664,-8.7876844,"Santiago do Cacém","Setúbal","Rua do Mercado","7500-220 Santiago do Cacém","http://maps.google.com/maps?z=12&t=m&q=Pingo+Doce+-+Rua+do+Mercado+Santiago+do+Cac%C3%A9m",FALSE,"938875612",NA,NA,NA
704,"Santo António dos Cavaleiros",38.816368,-9.155066,"Loures","Lisboa","Rua Pêro Vaz Caminha","2660-441 Loures","http://maps.google.com/maps?z=12&t=m&q=Pingo+Doce+-+Rua+P%C3%AAro+Vaz+Caminha+Loures",FALSE,"938875704",NA,NA,NA
666,"Santo Tirso - Lugar de Fontiscos",41.33861111,-8.495277778,"Santo Tirso","Porto","Lugar De Fontiscos","4780-583 Santo Tirso","http://maps.google.com/maps?z=12&t=m&q=Pingo+Doce+-+Lugar+De+Fontiscos+Santo+Tirso",FALSE,"938042405",NA,NA,NA
457,"São Bento",38.7098,-9.15691,"Lisboa","Lisboa","Rua Do Quelhas","1200-781 Lisboa","http://maps.google.com/maps?z=12&t=m&q=Pingo+Doce+-+Rua+Do+Quelhas+Lisboa",FALSE,"938870000",NA,NA,NA
848,"São Brás de Alportel",37.15376,-7.89396,"São Brás de Alportel","Faro","Rua Luís Bivar","8150-156 São Brás de Alportel","http://maps.google.com/maps?z=12&t=m&q=Pingo+Doce+-+Rua+Lu%C3%ADs+Bivar+S%C3%A3o+Br%C3%A1s+de+Alportel",FALSE,"938875120",NA,NA,NA
349,"São Gens",41.18921,-8.63375,"Matosinhos","Porto","Rua Dos Fogueteiros","4461-801 Matosinhos","http://maps.google.com/maps?z=12&t=m&q=Pingo+Doce+-+Rua+Dos+Fogueteiros+Matosinhos",FALSE,"938875349",NA,NA,NA
470,"São João da Madeira - Casaldelo",40.89445,-8.50255,"São João da Madeira","Aveiro","Rua António Nicolau, Casal Delo","3700-44 São João da Madeira","http://maps.google.com/maps?z=12&t=m&q=Pingo+Doce+-+Rua+Ant%C3%B3nio+Nicolau%2C+Casal+Delo+S%C3%A3o+Jo%C3%A3o+da+Madeira",FALSE,"938875470",NA,NA,NA
382,"São João da Madeira - Rua Visconde",40.89817,-8.49198,"São João da Madeira","Aveiro","Rua Visconde de S. João da Madeira","3700-267 São João da Madeira","http://maps.google.com/maps?z=12&t=m&q=Pingo+Doce+-+Rua+Visconde+de+S.+Jo%C3%A3o+da+Madeira+S%C3%A3o+Jo%C3%A3o+da+Madeira",FALSE,"938875382",NA,NA,NA
397,"São João do Estoril",38.699444,-9.380278,"Cascais","Lisboa","Rua Egas Moniz","2765-478 Cascais","http://maps.google.com/maps?z=12&t=m&q=Pingo+Doce+-+Rua+Egas+Moniz++Cascais",FALSE,"938875495",NA,NA,NA
331,"São Mamede de Infesta",41.2018203735352,-8.61277961730957,"Matosinhos","Porto","Rua Godinho Faria","4465-156 Matosinhos","http://maps.google.com/maps?z=12&t=m&q=Pingo+Doce+-+Rua+Godinho+Faria+Matosinhos",FALSE,"938875331",NA,NA,NA
650,"São Mamede de Infesta - Sá e Melo",41.196174,-8.611513,"Matosinhos","Porto","Rua Dr. Sá e Melo","4465-245 Matosinhos","http://maps.google.com/maps?z=12&t=m&q=Pingo+Doce+-+Rua+Dr.+S%C3%A1+e+Melo+Matosinhos",FALSE,"938875226",NA,NA,NA
325,"São Mamede de Infesta - Travessa da Concórdia",41.181696,-8.629667,"Matosinhos","Porto","Rua Cooperação, Monte Dos Burgos","4465-101 Matosinhos","http://maps.google.com/maps?z=12&t=m&q=Pingo+Doce+-+Rua+Coopera%C3%A7%C3%A3o%2C+Monte+Dos+Burgos+Matosinhos",FALSE,"938875325",NA,NA,NA
435,"São Marcos",38.7486,-9.29855,"Sintra","Lisboa","Rua de Belo Horizonte","2735-653 Sintra","http://maps.google.com/maps?z=12&t=m&q=Pingo+Doce+-+Rua+de+Belo+Horizonte+Sintra",FALSE,"938875435",NA,NA,NA
745,"São Pedro da Cova",41.152877,-8.506229,"Gondomar","Porto","Rua Eng.º Farinas De Almeida, São Pedro Da Cova","4510-260 Gondomar","http://maps.google.com/maps?z=12&t=m&q=Pingo+Doce+-+Rua+Eng.%C2%BA+Farinas+De+Almeida%2C+S%C3%A3o+Pedro+Da+Cova+Gondomar",FALSE,"938875945",NA,NA,NA
355,"São Pedro da Cova - Estrada de Dom Miguel",41.15138889,-8.516111111,"Gondomar","Porto","Estrada D. Miguel","4510-243 Gondomar","http://maps.google.com/maps?z=12&t=m&q=Pingo+Doce+-+Estrada+D.+Miguel+Gondomar",FALSE,"938875932",NA,NA,NA
511,"São Pedro do Sul",40.757309,-8.067347,"São Pedro do Sul","Viseu","Rua Dr. José Correia de Oliveira, Quinta da Cruzada","3660-432 São Pedro do Sul","http://maps.google.com/maps?z=12&t=m&q=Pingo+Doce+-+Rua+Dr.+Jos%C3%A9+Correia+de+Oliveira%2C+Quinta+da+Cruzada+S%C3%A3o+Pedro+do+Sul",FALSE,"938895503",NA,NA,NA
517,"São Romão",41.281941,-8.562803,"Trofa","Porto","Rua Horizonte","4745-524 Trofa","http://maps.google.com/maps?z=12&t=m&q=Pingo+Doce+-+Rua+Horizonte+Trofa",FALSE,"938040154",NA,NA,NA
806,"Sassoeiros",38.69578,-9.3292,"Oeiras","Lisboa","Estrada Nacional","2780-158 Oeiras","http://maps.google.com/maps?z=12&t=m&q=Pingo+Doce+-+Estrada+Nacional+Oeiras",FALSE,"938875806",NA,NA,NA
523,"Sátão",40.749928,-7.735756,"Sátão","Viseu","Avenida Vila Rosa","3560-228 Sátão","http://maps.google.com/maps?z=12&t=m&q=Pingo+Doce+-+Avenida+Vila+Rosa+S%C3%A1t%C3%A3o",FALSE,"938042246",NA,NA,NA
678,"Seia",40.427,-7.71416,"Seia","Guarda","Zona Industrial - Bairro Sta. Cruz","6270-502 Seia","http://maps.google.com/maps?z=12&t=m&q=Pingo+Doce+-+Zona+Industrial+-+Bairro+Sta.+Cruz+Seia",FALSE,"938875678",NA,NA,NA
532,"Serpa",37.938318,-7.606345,"Serpa","Beja","Rua Eira de S.Pedro","7830-348 Serpa","http://maps.google.com/maps?z=12&t=m&q=Pingo+Doce+-+Rua+Eira+de+S.Pedro+Serpa",FALSE,"938870146",NA,NA,NA
317,"Serpa Pinto",41.16671,-8.6202,"Porto","Porto","R. Serpa Pinto","4250-465 Porto","http://maps.google.com/maps?z=12&t=m&q=Pingo+Doce+-+R.+Serpa+Pinto+Porto",FALSE,"938875317",NA,NA,NA
812,"Serra da Mira",38.76604,-9.23109,"Amadora","Lisboa","Estrada Serra Da Mira","2700-364 Amadora","http://maps.google.com/maps?z=12&t=m&q=Pingo+Doce+-+Estrada+Serra+Da+Mira+Amadora",FALSE,"938875812",NA,NA,NA
318,"Sertã",39.79934,-8.0937,"Sertã","Castelo Branco","Sitio Da Abegoaria","6100-601 Sertã","http://maps.google.com/maps?z=12&t=m&q=Pingo+Doce+-+Sitio+Da+Abegoaria+Sert%C3%A3",FALSE,"938045686",NA,NA,NA
764,"Sesimbra - Carrasqueira",38.48888,-9.10636,"Sesimbra","Setúbal","Rua dos Amores Perfeitos - Urbanização Quinta Da Mesquita","2970-649 Sesimbra","http://maps.google.com/maps?z=12&t=m&q=Pingo+Doce+-+Rua+dos+Amores+Perfeitos+-+Urbaniza%C3%A7%C3%A3o+Quinta+Da+Mesquita+Sesimbra",FALSE,"938875764",1.605,1.758,1.536
859,"Sesimbra - Castelo",38.4644,-9.09728,"Sesimbra","Setúbal","E.N. 379, Sampaio","2970-649 Sesimbra","http://maps.google.com/maps?z=12&t=m&q=Pingo+Doce+-+E.N.+379%2C+Sampaio++Sesimbra",FALSE,"938775859",NA,NA,NA
757,"Setúbal - Estrada de Ciprestres",38.532632,-8.884707,"Setúbal","Setúbal","Estrada Dos Cipestres, Santa Maria Da Graça","2900-319 Setúbal","http://maps.google.com/maps?z=12&t=m&q=Pingo+Doce+-+Estrada+Dos+Cipestres%2C+Santa+Maria+Da+Gra%C3%A7a+Set%C3%BAbal",FALSE,"938875757",NA,NA,NA
810,"Setúbal - Luísa Todi",38.5226,-8.89297,"Setúbal","Setúbal","Av. Luisa Todi","2900-461 Setúbal","http://maps.google.com/maps?z=12&t=m&q=Pingo+Doce+-+Av.+Luisa+Todi+Set%C3%BAbal",FALSE,"938875810",NA,NA,NA
446,"Setúbal - Moinho dos Frades",38.5255,-8.88095,"Setúbal","Setúbal","Rua Moinho Dos Frades","2910-616 Setúbal","http://maps.google.com/maps?z=12&t=m&q=Pingo+Doce+-+Rua+Moinho+Dos+Frades+Set%C3%BAbal",FALSE,"938875446",NA,NA,NA
641,"Setúbal - Monte Bello",38.5385659,-8.8719821,"Setúbal","Setúbal","Rua das Carvelas","2910-998 Setúbal","http://maps.google.com/maps?z=12&t=m&q=Pingo+Doce+-+Rua+das+Carvelas+Set%C3%BAbal",FALSE,"938876284",NA,NA,NA
361,"Sever do Vouga",40.7336,-8.3728,"Sever do vouga","Aveiro","Rua da APCDI","3740-133 Sever do vouga","http://maps.google.com/maps?z=12&t=m&q=Pingo+Doce+-+Rua+da+APCDI+Sever+do+vouga",FALSE,"938875360",NA,NA,NA
520,"Silveira",39.108114,-9.366763,"Torres Vedras","Lisboa","Rua Do Moinho Do Espanhol","2560-402 Torres Vedras","http://maps.google.com/maps?z=12&t=m&q=Pingo+Doce+-+Rua+Do+Moinho+Do+Espanhol+Torres+Vedras",FALSE,"938875100",NA,NA,NA
763,"Sines",37.96572,-8.85818,"Sines","Setúbal","Loteamento Municipal A Norte Da R52","7520-137 Sines","http://maps.google.com/maps?z=12&t=m&q=Pingo+Doce+-+Loteamento+Municipal+A+Norte+Da+R52+Sines",FALSE,"938875763",NA,NA,NA
841,"Sintra",38.8014,-9.37953,"Sintra","Lisboa","Praça D. Afonso V","2710-521 Sintra","http://maps.google.com/maps?z=12&t=m&q=Pingo+Doce+-+Pra%C3%A7a+D.+Afonso+V+Sintra",FALSE,"938875841",NA,NA,NA
483,"Sobralinho",38.91022,-9.02749,"Vila Franca de Xira","Lisboa","E.N. 10 Km 127 - Lugar dos Álamos - Empreendimento Norcentro","2615-42 Vila Franca de Xira","http://maps.google.com/maps?z=12&t=m&q=Pingo+Doce+-+E.N.+10+Km+127+-+Lugar+dos+%C3%81lamos+-+Empreendimento+Norcentro+Vila+Franca+de+Xira",FALSE,"938875119",NA,NA,NA
358,"Soure",40.06666667,-8.616666667,"Soure","Coimbra","E.N. 342, Loteamento Do Bairro Dos Arcos, Quinta Nova","3130-211 Soure","http://maps.google.com/maps?z=12&t=m&q=Pingo+Doce+-+E.N.+342%2C+Loteamento+Do+Bairro+Dos+Arcos%2C+Quinta+Nova+Soure",FALSE,"938877788",NA,NA,NA
